[{"cca2":"ER","translations":[{"language":"English","name":"Eritrea"},{"language":"French","name":"\u00C9rythr\u00E9e"}],"capitals":[{"name":"Asmara","coordinate":{"latitude":15.33,"longitude":38.93}}],"borders":["DJI","ETH","SDN"],"continent":"Africa","coordinate":{"latitude":15,"longitude":39},"area":117600,"population":5352000,"resource":{"map":"https://goo.gl/maps/HRyqUpnPwwG6jY5j6","flag":{"uri":"https://flagcdn.com/er.svg","mediaType":"image/svg\u002Bxml"}},"isExcluded":false},{"cca2":"CM","translations":[{"language":"English","name":"Cameroon"},{"language":"French","name":"Cameroun"}],"capitals":[{"name":"Yaound\u00E9","coordinate":{"latitude":3.85,"longitude":11.5}}],"borders":["CAF","TCD","COG","GNQ","GAB","NGA"],"continent":"Africa","coordinate":{"latitude":6,"longitude":12},"area":475442,"population":26545864,"resource":{"map":"https://goo.gl/maps/JqiipHgFboG3rBJh9","flag":{"uri":"https://flagcdn.com/cm.svg","mediaType":"image/svg\u002Bxml"}},"isExcluded":false},{"cca2":"ME","translations":[{"language":"English","name":"Montenegro"},{"language":"French","name":"Mont\u00E9n\u00E9gro"}],"capitals":[{"name":"Podgorica","coordinate":{"latitude":42.43,"longitude":19.27}}],"borders":["ALB","BIH","HRV","UNK","SRB"],"continent":"Europe","coordinate":{"latitude":42.5,"longitude":19.3},"area":13812,"population":621718,"resource":{"map":"https://goo.gl/maps/4THX1fM7WqANuPbB8","flag":{"uri":"https://flagcdn.com/me.svg","mediaType":"image/svg\u002Bxml"}},"isExcluded":false},{"cca2":"FJ","translations":[{"language":"English","name":"Fiji"},{"language":"French","name":"Fidji"}],"capitals":[{"name":"Suva","coordinate":{"latitude":-18.13,"longitude":178.42}}],"borders":[],"continent":"Oceania","coordinate":{"latitude":-17.7134,"longitude":178.065},"area":18272,"population":896444,"resource":{"map":"https://goo.gl/maps/r9fhDqoLZdg1zmE99","flag":{"uri":"https://flagcdn.com/fj.svg","mediaType":"image/svg\u002Bxml"}},"isExcluded":false},{"cca2":"TN","translations":[{"language":"English","name":"Tunisia"},{"language":"French","name":"Tunisie"}],"capitals":[{"name":"Tunis","coordinate":{"latitude":36.8,"longitude":10.18}}],"borders":["DZA","LBY"],"continent":"Africa","coordinate":{"latitude":34,"longitude":9},"area":163610,"population":11818618,"resource":{"map":"https://goo.gl/maps/KgUmpZdUuNRaougs8","flag":{"uri":"https://flagcdn.com/tn.svg","mediaType":"image/svg\u002Bxml"}},"isExcluded":false},{"cca2":"SN","translations":[{"language":"English","name":"Senegal"},{"language":"French","name":"S\u00E9n\u00E9gal"}],"capitals":[{"name":"Dakar","coordinate":{"latitude":14.73,"longitude":-17.63}}],"borders":["GMB","GIN","GNB","MLI","MRT"],"continent":"Africa","coordinate":{"latitude":14,"longitude":-14},"area":196722,"population":16743930,"resource":{"map":"https://goo.gl/maps/o5f1uD5nyihCL3HCA","flag":{"uri":"https://flagcdn.com/sn.svg","mediaType":"image/svg\u002Bxml"}},"isExcluded":false},{"cca2":"GS","translations":[{"language":"English","name":"South Georgia"},{"language":"French","name":"G\u00E9orgie du Sud-et-les \u00CEles Sandwich du Sud"}],"capitals":[{"name":"King Edward Point","coordinate":{"latitude":-54.28,"longitude":-36.5}}],"borders":[],"continent":"Antarctica","coordinate":{"latitude":-54.5,"longitude":-37},"area":3903,"population":30,"resource":{"map":"https://goo.gl/maps/mJzdaBwKBbm2B81q9","flag":{"uri":"https://flagcdn.com/gs.svg","mediaType":"image/svg\u002Bxml"}},"isExcluded":false},{"cca2":"BR","translations":[{"language":"English","name":"Brazil"},{"language":"French","name":"Br\u00E9sil"}],"capitals":[{"name":"Bras\u00EDlia","coordinate":{"latitude":-15.79,"longitude":-47.88}}],"borders":["ARG","BOL","COL","GUF","GUY","PRY","PER","SUR","URY","VEN"],"continent":"SouthAmerica","coordinate":{"latitude":-10,"longitude":-55},"area":8515767,"population":212559409,"resource":{"map":"https://goo.gl/maps/waCKk21HeeqFzkNC9","flag":{"uri":"https://flagcdn.com/br.svg","mediaType":"image/svg\u002Bxml"}},"isExcluded":false},{"cca2":"LI","translations":[{"language":"English","name":"Liechtenstein"},{"language":"French","name":"Liechtenstein"}],"capitals":[{"name":"Vaduz","coordinate":{"latitude":47.13,"longitude":9.52}}],"borders":["AUT","CHE"],"continent":"Europe","coordinate":{"latitude":47.26666666,"longitude":9.53333333},"area":160,"population":38137,"resource":{"map":"https://goo.gl/maps/KNuHeiJzAPodwM7y6","flag":{"uri":"https://flagcdn.com/li.svg","mediaType":"image/svg\u002Bxml"}},"isExcluded":false},{"cca2":"MX","translations":[{"language":"English","name":"Mexico"},{"language":"French","name":"Mexique"}],"capitals":[{"name":"Mexico City","coordinate":{"latitude":19.43,"longitude":-99.13}}],"borders":["BLZ","GTM","USA"],"continent":"NorthAmerica","coordinate":{"latitude":23,"longitude":-102},"area":1964375,"population":128932753,"resource":{"map":"https://goo.gl/maps/s5g7imNPMDEePxzbA","flag":{"uri":"https://flagcdn.com/mx.svg","mediaType":"image/svg\u002Bxml"}},"isExcluded":false},{"cca2":"PS","translations":[{"language":"English","name":"Palestine"},{"language":"French","name":"Palestine"}],"capitals":[{"name":"Ramallah","coordinate":{"latitude":31.9,"longitude":35.2}},{"name":"Jerusalem","coordinate":{"latitude":31.9,"longitude":35.2}}],"borders":["ISR","EGY","JOR"],"continent":"Asia","coordinate":{"latitude":31.9,"longitude":35.2},"area":6220,"population":4803269,"resource":{"map":"https://goo.gl/maps/QvTbkRdmdWEoYAmt5","flag":{"uri":"https://flagcdn.com/ps.svg","mediaType":"image/svg\u002Bxml"}},"isExcluded":false},{"cca2":"GL","translations":[{"language":"English","name":"Greenland"},{"language":"French","name":"Groenland"}],"capitals":[{"name":"Nuuk","coordinate":{"latitude":64.18,"longitude":-51.75}}],"borders":[],"continent":"NorthAmerica","coordinate":{"latitude":72,"longitude":-40},"area":2166086,"population":56367,"resource":{"map":"https://goo.gl/maps/j3289UPEQXt1ceSy8","flag":{"uri":"https://flagcdn.com/gl.svg","mediaType":"image/svg\u002Bxml"}},"isExcluded":false},{"cca2":"UM","translations":[{"language":"English","name":"United States Minor Outlying Islands"},{"language":"French","name":"\u00CEles mineures \u00E9loign\u00E9es des \u00C9tats-Unis"}],"capitals":[{"name":"Washington DC","coordinate":{"latitude":19.3,"longitude":166.633333}}],"borders":[],"continent":"NorthAmerica","coordinate":{"latitude":19.3,"longitude":166.633333},"area":34.2,"population":300,"resource":{"map":"https://goo.gl/maps/hZKnrzgeK69dDyPF8","flag":{"uri":"https://flagcdn.com/um.svg","mediaType":"image/svg\u002Bxml"}},"isExcluded":true},{"cca2":"GQ","translations":[{"language":"English","name":"Equatorial Guinea"},{"language":"French","name":"Guin\u00E9e \u00E9quatoriale"}],"capitals":[{"name":"Malabo","coordinate":{"latitude":3.75,"longitude":8.78}}],"borders":["CMR","GAB"],"continent":"Africa","coordinate":{"latitude":2,"longitude":10},"area":28051,"population":1402985,"resource":{"map":"https://goo.gl/maps/ucWfFd8aW1FbGMva9","flag":{"uri":"https://flagcdn.com/gq.svg","mediaType":"image/svg\u002Bxml"}},"isExcluded":false},{"cca2":"GP","translations":[{"language":"English","name":"Guadeloupe"},{"language":"French","name":"Guadeloupe"}],"capitals":[{"name":"Basse-Terre","coordinate":{"latitude":16.03,"longitude":-61.73}}],"borders":[],"continent":"CentralAmerica","coordinate":{"latitude":16.25,"longitude":-61.583333},"area":1628,"population":400132,"resource":{"map":"https://goo.gl/maps/Dy9R2EufJtoWm8UN9","flag":{"uri":"https://flagcdn.com/gp.svg","mediaType":"image/svg\u002Bxml"}},"isExcluded":false},{"cca2":"SH","translations":[{"language":"English","name":"Saint Helena, Ascension and Tristan da Cunha"},{"language":"French","name":"Sainte-H\u00E9l\u00E8ne, Ascension et Tristan da Cunha"}],"capitals":[{"name":"Jamestown","coordinate":{"latitude":-15.93,"longitude":-5.72}}],"borders":[],"continent":"Africa","coordinate":{"latitude":-15.95,"longitude":-5.72},"area":394,"population":53192,"resource":{"map":"https://goo.gl/maps/iv4VxnPzHkjLCJuc6","flag":{"uri":"https://flagcdn.com/sh.svg","mediaType":"image/svg\u002Bxml"}},"isExcluded":false},{"cca2":"TR","translations":[{"language":"English","name":"Turkey"},{"language":"French","name":"Turquie"}],"capitals":[{"name":"Ankara","coordinate":{"latitude":39.93,"longitude":32.87}}],"borders":["ARM","AZE","BGR","GEO","GRC","IRN","IRQ","SYR"],"continent":"Asia","coordinate":{"latitude":39,"longitude":35},"area":783562,"population":84339067,"resource":{"map":"https://goo.gl/maps/dXFFraiUDfcB6Quk6","flag":{"uri":"https://flagcdn.com/tr.svg","mediaType":"image/svg\u002Bxml"}},"isExcluded":false},{"cca2":"TD","translations":[{"language":"English","name":"Chad"},{"language":"French","name":"Tchad"}],"capitals":[{"name":"N\u0027Djamena","coordinate":{"latitude":12.1,"longitude":15.03}}],"borders":["CMR","CAF","LBY","NER","NGA","SDN"],"continent":"Africa","coordinate":{"latitude":15,"longitude":19},"area":1284000,"population":16425859,"resource":{"map":"https://goo.gl/maps/ziUdAZ8skuNfx5Hx7","flag":{"uri":"https://flagcdn.com/td.svg","mediaType":"image/svg\u002Bxml"}},"isExcluded":false},{"cca2":"HN","translations":[{"language":"English","name":"Honduras"},{"language":"French","name":"Honduras"}],"capitals":[{"name":"Tegucigalpa","coordinate":{"latitude":14.1,"longitude":-87.22}}],"borders":["GTM","SLV","NIC"],"continent":"CentralAmerica","coordinate":{"latitude":15,"longitude":-86.5},"area":112492,"population":9904608,"resource":{"map":"https://goo.gl/maps/BbeJK8Sk2VkMHbdF8","flag":{"uri":"https://flagcdn.com/hn.svg","mediaType":"image/svg\u002Bxml"}},"isExcluded":false},{"cca2":"AT","translations":[{"language":"English","name":"Austria"},{"language":"French","name":"Autriche"}],"capitals":[{"name":"Vienna","coordinate":{"latitude":48.2,"longitude":16.37}}],"borders":["CZE","DEU","HUN","ITA","LIE","SVK","SVN","CHE"],"continent":"Europe","coordinate":{"latitude":47.33333333,"longitude":13.33333333},"area":83871,"population":8917205,"resource":{"map":"https://goo.gl/maps/pCWpWQhznHyRzQcu9","flag":{"uri":"https://flagcdn.com/at.svg","mediaType":"image/svg\u002Bxml"}},"isExcluded":false},{"cca2":"RO","translations":[{"language":"English","name":"Romania"},{"language":"French","name":"Roumanie"}],"capitals":[{"name":"Bucharest","coordinate":{"latitude":44.43,"longitude":26.1}}],"borders":["BGR","HUN","MDA","SRB","UKR"],"continent":"Europe","coordinate":{"latitude":46,"longitude":25},"area":238391,"population":19286123,"resource":{"map":"https://goo.gl/maps/845hAgCf1mDkN3vr7","flag":{"uri":"https://flagcdn.com/ro.svg","mediaType":"image/svg\u002Bxml"}},"isExcluded":false},{"cca2":"GA","translations":[{"language":"English","name":"Gabon"},{"language":"French","name":"Gabon"}],"capitals":[{"name":"Libreville","coordinate":{"latitude":0.38,"longitude":9.45}}],"borders":["CMR","COG","GNQ"],"continent":"Africa","coordinate":{"latitude":-1,"longitude":11.75},"area":267668,"population":2225728,"resource":{"map":"https://goo.gl/maps/vyRSkqw1H1fnq4ry6","flag":{"uri":"https://flagcdn.com/ga.svg","mediaType":"image/svg\u002Bxml"}},"isExcluded":false},{"cca2":"NA","translations":[{"language":"English","name":"Namibia"},{"language":"French","name":"Namibie"}],"capitals":[{"name":"Windhoek","coordinate":{"latitude":-22.57,"longitude":17.08}}],"borders":["AGO","BWA","ZAF","ZMB"],"continent":"Africa","coordinate":{"latitude":-22,"longitude":17},"area":825615,"population":2540916,"resource":{"map":"https://goo.gl/maps/oR1i8BFEYX3EY83WA","flag":{"uri":"https://flagcdn.com/na.svg","mediaType":"image/svg\u002Bxml"}},"isExcluded":false},{"cca2":"RW","translations":[{"language":"English","name":"Rwanda"},{"language":"French","name":"Rwanda"}],"capitals":[{"name":"Kigali","coordinate":{"latitude":-1.95,"longitude":30.05}}],"borders":["BDI","COD","TZA","UGA"],"continent":"Africa","coordinate":{"latitude":-2,"longitude":30},"area":26338,"population":12952209,"resource":{"map":"https://goo.gl/maps/j5xb5r7CLqjYbyP86","flag":{"uri":"https://flagcdn.com/rw.svg","mediaType":"image/svg\u002Bxml"}},"isExcluded":false},{"cca2":"VC","translations":[{"language":"English","name":"Saint Vincent and the Grenadines"},{"language":"French","name":"Saint-Vincent-et-les-Grenadines"}],"capitals":[{"name":"Kingstown","coordinate":{"latitude":13.13,"longitude":-61.22}}],"borders":[],"continent":"CentralAmerica","coordinate":{"latitude":13.25,"longitude":-61.2},"area":389,"population":110947,"resource":{"map":"https://goo.gl/maps/wMbnMqjG37FMnrwf7","flag":{"uri":"https://flagcdn.com/vc.svg","mediaType":"image/svg\u002Bxml"}},"isExcluded":false},{"cca2":"BG","translations":[{"language":"English","name":"Bulgaria"},{"language":"French","name":"Bulgarie"}],"capitals":[{"name":"Sofia","coordinate":{"latitude":42.68,"longitude":23.32}}],"borders":["GRC","MKD","ROU","SRB","TUR"],"continent":"Europe","coordinate":{"latitude":43,"longitude":25},"area":110879,"population":6927288,"resource":{"map":"https://goo.gl/maps/F5uAhDGWzc3BrHfm9","flag":{"uri":"https://flagcdn.com/bg.svg","mediaType":"image/svg\u002Bxml"}},"isExcluded":false},{"cca2":"CO","translations":[{"language":"English","name":"Colombia"},{"language":"French","name":"Colombie"}],"capitals":[{"name":"Bogot\u00E1","coordinate":{"latitude":4.71,"longitude":-74.07}}],"borders":["BRA","ECU","PAN","PER","VEN"],"continent":"SouthAmerica","coordinate":{"latitude":4,"longitude":-72},"area":1141748,"population":50882884,"resource":{"map":"https://goo.gl/maps/zix9qNFX69E9yZ2M6","flag":{"uri":"https://flagcdn.com/co.svg","mediaType":"image/svg\u002Bxml"}},"isExcluded":false},{"cca2":"SR","translations":[{"language":"English","name":"Suriname"},{"language":"French","name":"Surinam"}],"capitals":[{"name":"Paramaribo","coordinate":{"latitude":5.83,"longitude":-55.17}}],"borders":["BRA","GUF","GUY"],"continent":"SouthAmerica","coordinate":{"latitude":4,"longitude":-56},"area":163820,"population":586634,"resource":{"map":"https://goo.gl/maps/iy7TuQLSi4qgoBoG7","flag":{"uri":"https://flagcdn.com/sr.svg","mediaType":"image/svg\u002Bxml"}},"isExcluded":false},{"cca2":"ZW","translations":[{"language":"English","name":"Zimbabwe"},{"language":"French","name":"Zimbabwe"}],"capitals":[{"name":"Harare","coordinate":{"latitude":-17.82,"longitude":31.03}}],"borders":["BWA","MOZ","ZAF","ZMB"],"continent":"Africa","coordinate":{"latitude":-20,"longitude":30},"area":390757,"population":14862927,"resource":{"map":"https://goo.gl/maps/M26BqdwQctqxXS65A","flag":{"uri":"https://flagcdn.com/zw.svg","mediaType":"image/svg\u002Bxml"}},"isExcluded":false},{"cca2":"VE","translations":[{"language":"English","name":"Venezuela"},{"language":"French","name":"Venezuela"}],"capitals":[{"name":"Caracas","coordinate":{"latitude":10.48,"longitude":-66.87}}],"borders":["BRA","COL","GUY"],"continent":"SouthAmerica","coordinate":{"latitude":8,"longitude":-66},"area":916445,"population":28435943,"resource":{"map":"https://goo.gl/maps/KLCwDN8sec7z2kse9","flag":{"uri":"https://flagcdn.com/ve.svg","mediaType":"image/svg\u002Bxml"}},"isExcluded":false},{"cca2":"SZ","translations":[{"language":"English","name":"Eswatini"},{"language":"French","name":"Swaziland"}],"capitals":[{"name":"Mbabane","coordinate":{"latitude":-26.32,"longitude":31.13}}],"borders":["MOZ","ZAF"],"continent":"Africa","coordinate":{"latitude":-26.5,"longitude":31.5},"area":17364,"population":1160164,"resource":{"map":"https://goo.gl/maps/cUY79eqQihFSE8hV6","flag":{"uri":"https://flagcdn.com/sz.svg","mediaType":"image/svg\u002Bxml"}},"isExcluded":false},{"cca2":"PH","translations":[{"language":"English","name":"Philippines"},{"language":"French","name":"Philippines"}],"capitals":[{"name":"Manila","coordinate":{"latitude":14.6,"longitude":120.97}}],"borders":[],"continent":"Asia","coordinate":{"latitude":13,"longitude":122},"area":342353,"population":109581085,"resource":{"map":"https://goo.gl/maps/k8T2fb5VMUfsWFX6A","flag":{"uri":"https://flagcdn.com/ph.svg","mediaType":"image/svg\u002Bxml"}},"isExcluded":false},{"cca2":"TM","translations":[{"language":"English","name":"Turkmenistan"},{"language":"French","name":"Turkm\u00E9nistan"}],"capitals":[{"name":"Ashgabat","coordinate":{"latitude":37.95,"longitude":58.38}}],"borders":["AFG","IRN","KAZ","UZB"],"continent":"Asia","coordinate":{"latitude":40,"longitude":60},"area":488100,"population":6031187,"resource":{"map":"https://goo.gl/maps/cgfUcaQHSWKuqeKk9","flag":{"uri":"https://flagcdn.com/tm.svg","mediaType":"image/svg\u002Bxml"}},"isExcluded":false},{"cca2":"DZ","translations":[{"language":"English","name":"Algeria"},{"language":"French","name":"Alg\u00E9rie"}],"capitals":[{"name":"Algiers","coordinate":{"latitude":36.75,"longitude":3.05}}],"borders":["TUN","LBY","NER","ESH","MRT","MLI","MAR"],"continent":"Africa","coordinate":{"latitude":28,"longitude":3},"area":2381741,"population":44700000,"resource":{"map":"https://goo.gl/maps/RsAyAfyaiNVb8DpW8","flag":{"uri":"https://flagcdn.com/dz.svg","mediaType":"image/svg\u002Bxml"}},"isExcluded":false},{"cca2":"NE","translations":[{"language":"English","name":"Niger"},{"language":"French","name":"Niger"}],"capitals":[{"name":"Niamey","coordinate":{"latitude":13.52,"longitude":2.12}}],"borders":["DZA","BEN","BFA","TCD","LBY","MLI","NGA"],"continent":"Africa","coordinate":{"latitude":16,"longitude":8},"area":1267000,"population":24206636,"resource":{"map":"https://goo.gl/maps/VKNU2TLsZcgxM49c8","flag":{"uri":"https://flagcdn.com/ne.svg","mediaType":"image/svg\u002Bxml"}},"isExcluded":false},{"cca2":"JM","translations":[{"language":"English","name":"Jamaica"},{"language":"French","name":"Jama\u00EFque"}],"capitals":[{"name":"Kingston","coordinate":{"latitude":17.99702,"longitude":-76.79358}}],"borders":[],"continent":"CentralAmerica","coordinate":{"latitude":18.25,"longitude":-77.5},"area":10991,"population":2961161,"resource":{"map":"https://goo.gl/maps/Z8mQ6jxnRQKFwJy9A","flag":{"uri":"https://flagcdn.com/jm.svg","mediaType":"image/svg\u002Bxml"}},"isExcluded":false},{"cca2":"AM","translations":[{"language":"English","name":"Armenia"},{"language":"French","name":"Arm\u00E9nie"}],"capitals":[{"name":"Yerevan","coordinate":{"latitude":40.17,"longitude":44.5}}],"borders":["AZE","GEO","IRN","TUR"],"continent":"Asia","coordinate":{"latitude":40,"longitude":45},"area":29743,"population":2963234,"resource":{"map":"https://goo.gl/maps/azWUtK9bUQYEyccbA","flag":{"uri":"https://flagcdn.com/am.svg","mediaType":"image/svg\u002Bxml"}},"isExcluded":false},{"cca2":"BQ","translations":[{"language":"English","name":"Caribbean Netherlands"},{"language":"French","name":"Pays-Bas carib\u00E9ens"}],"capitals":[{"name":"Kralendijk","coordinate":{"latitude":12.14,"longitude":-68.27}}],"borders":[],"continent":"CentralAmerica","coordinate":{"latitude":12.18,"longitude":-68.25},"area":328,"population":25987,"resource":{"map":"https://goo.gl/maps/4XVes1P6uEDTz77WA","flag":{"uri":"https://flagcdn.com/bq.svg","mediaType":"image/svg\u002Bxml"}},"isExcluded":false},{"cca2":"SB","translations":[{"language":"English","name":"Solomon Islands"},{"language":"French","name":"\u00CEles Salomon"}],"capitals":[{"name":"Honiara","coordinate":{"latitude":-9.43,"longitude":159.95}}],"borders":[],"continent":"Oceania","coordinate":{"latitude":-8,"longitude":159},"area":28896,"population":686878,"resource":{"map":"https://goo.gl/maps/JbPkx86Ywjv8C1n8A","flag":{"uri":"https://flagcdn.com/sb.svg","mediaType":"image/svg\u002Bxml"}},"isExcluded":false},{"cca2":"CU","translations":[{"language":"English","name":"Cuba"},{"language":"French","name":"Cuba"}],"capitals":[{"name":"Havana","coordinate":{"latitude":23.12,"longitude":-82.35}}],"borders":[],"continent":"CentralAmerica","coordinate":{"latitude":21.5,"longitude":-80},"area":109884,"population":11326616,"resource":{"map":"https://goo.gl/maps/1dDw1QfZspfMUTm99","flag":{"uri":"https://flagcdn.com/cu.svg","mediaType":"image/svg\u002Bxml"}},"isExcluded":false},{"cca2":"TF","translations":[{"language":"English","name":"French Southern and Antarctic Lands"},{"language":"French","name":"Terres australes et antarctiques fran\u00E7aises"}],"capitals":[{"name":"Port-aux-Fran\u00E7ais","coordinate":{"latitude":48.81,"longitude":-1.4}}],"borders":[],"continent":"Antarctica","coordinate":{"latitude":-49.25,"longitude":69.167},"area":7747,"population":400,"resource":{"map":"https://goo.gl/maps/6ua6CX1m4w1xF2Em7","flag":{"uri":"https://flagcdn.com/tf.svg","mediaType":"image/svg\u002Bxml"}},"isExcluded":false},{"cca2":"AX","translations":[{"language":"English","name":"\u00C5land Islands"},{"language":"French","name":"Ahvenanmaa"}],"capitals":[{"name":"Mariehamn","coordinate":{"latitude":60.12,"longitude":19.9}}],"borders":[],"continent":"Europe","coordinate":{"latitude":60.116667,"longitude":19.9},"area":1580,"population":29458,"resource":{"map":"https://goo.gl/maps/ewFb3vYsfUmVCoSb8","flag":{"uri":"https://flagcdn.com/ax.svg","mediaType":"image/svg\u002Bxml"}},"isExcluded":false},{"cca2":"VI","translations":[{"language":"English","name":"United States Virgin Islands"},{"language":"French","name":"\u00CEles Vierges des \u00C9tats-Unis"}],"capitals":[{"name":"Charlotte Amalie","coordinate":{"latitude":18.35,"longitude":-64.93}}],"borders":[],"continent":"CentralAmerica","coordinate":{"latitude":18.35,"longitude":-64.933333},"area":347,"population":106290,"resource":{"map":"https://goo.gl/maps/mBfreywj8dor6q4m9","flag":{"uri":"https://flagcdn.com/vi.svg","mediaType":"image/svg\u002Bxml"}},"isExcluded":false},{"cca2":"LR","translations":[{"language":"English","name":"Liberia"},{"language":"French","name":"Liberia"}],"capitals":[{"name":"Monrovia","coordinate":{"latitude":6.3,"longitude":-10.8}}],"borders":["GIN","CIV","SLE"],"continent":"Africa","coordinate":{"latitude":6.5,"longitude":-9.5},"area":111369,"population":5057677,"resource":{"map":"https://goo.gl/maps/4VsHsc2oeGeRL3wg6","flag":{"uri":"https://flagcdn.com/lr.svg","mediaType":"image/svg\u002Bxml"}},"isExcluded":false},{"cca2":"SD","translations":[{"language":"English","name":"Sudan"},{"language":"French","name":"Soudan"}],"capitals":[{"name":"Khartoum","coordinate":{"latitude":15.6,"longitude":32.53}}],"borders":["CAF","TCD","EGY","ERI","ETH","LBY","SSD"],"continent":"Africa","coordinate":{"latitude":15,"longitude":30},"area":1886068,"population":43849269,"resource":{"map":"https://goo.gl/maps/bNW7YUJCaqR8zcXn7","flag":{"uri":"https://flagcdn.com/sd.svg","mediaType":"image/svg\u002Bxml"}},"isExcluded":false},{"cca2":"VG","translations":[{"language":"English","name":"British Virgin Islands"},{"language":"French","name":"\u00CEles Vierges britanniques"}],"capitals":[{"name":"Road Town","coordinate":{"latitude":18.42,"longitude":-64.62}}],"borders":[],"continent":"CentralAmerica","coordinate":{"latitude":18.431383,"longitude":-64.62305},"area":151,"population":30237,"resource":{"map":"https://goo.gl/maps/49C9cSesNVAR9DQk8","flag":{"uri":"https://flagcdn.com/vg.svg","mediaType":"image/svg\u002Bxml"}},"isExcluded":false},{"cca2":"TZ","translations":[{"language":"English","name":"Tanzania"},{"language":"French","name":"Tanzanie"}],"capitals":[{"name":"Dodoma","coordinate":{"latitude":-6.16,"longitude":35.75}}],"borders":["BDI","COD","KEN","MWI","MOZ","RWA","UGA","ZMB"],"continent":"Africa","coordinate":{"latitude":-6,"longitude":35},"area":945087,"population":59734213,"resource":{"map":"https://goo.gl/maps/NWYMqZYXte4zGZ2Q8","flag":{"uri":"https://flagcdn.com/tz.svg","mediaType":"image/svg\u002Bxml"}},"isExcluded":false},{"cca2":"HR","translations":[{"language":"English","name":"Croatia"},{"language":"French","name":"Croatie"}],"capitals":[{"name":"Zagreb","coordinate":{"latitude":45.8,"longitude":16}}],"borders":["BIH","HUN","MNE","SRB","SVN"],"continent":"Europe","coordinate":{"latitude":45.16666666,"longitude":15.5},"area":56594,"population":4047200,"resource":{"map":"https://goo.gl/maps/qSG6xTKUmrYpwmGQ6","flag":{"uri":"https://flagcdn.com/hr.svg","mediaType":"image/svg\u002Bxml"}},"isExcluded":false},{"cca2":"AD","translations":[{"language":"English","name":"Andorra"},{"language":"French","name":"Andorre"}],"capitals":[{"name":"Andorra la Vella","coordinate":{"latitude":42.5,"longitude":1.52}}],"borders":["FRA","ESP"],"continent":"Europe","coordinate":{"latitude":42.5,"longitude":1.5},"area":468,"population":77265,"resource":{"map":"https://goo.gl/maps/JqAnacWE2qEznKgw7","flag":{"uri":"https://flagcdn.com/ad.svg","mediaType":"image/svg\u002Bxml"}},"isExcluded":false},{"cca2":"BZ","translations":[{"language":"English","name":"Belize"},{"language":"French","name":"Belize"}],"capitals":[{"name":"Belmopan","coordinate":{"latitude":17.25,"longitude":-88.77}}],"borders":["GTM","MEX"],"continent":"CentralAmerica","coordinate":{"latitude":17.25,"longitude":-88.75},"area":22966,"population":397621,"resource":{"map":"https://goo.gl/maps/jdCccpdLodm1uTmo9","flag":{"uri":"https://flagcdn.com/bz.svg","mediaType":"image/svg\u002Bxml"}},"isExcluded":false},{"cca2":"BB","translations":[{"language":"English","name":"Barbados"},{"language":"French","name":"Barbade"}],"capitals":[{"name":"Bridgetown","coordinate":{"latitude":13.1,"longitude":-59.62}}],"borders":[],"continent":"CentralAmerica","coordinate":{"latitude":13.16666666,"longitude":-59.53333333},"area":430,"population":287371,"resource":{"map":"https://goo.gl/maps/2m36v8STvbGAWd9c7","flag":{"uri":"https://flagcdn.com/bb.svg","mediaType":"image/svg\u002Bxml"}},"isExcluded":false},{"cca2":"SK","translations":[{"language":"English","name":"Slovakia"},{"language":"French","name":"Slovaquie"}],"capitals":[{"name":"Bratislava","coordinate":{"latitude":48.15,"longitude":17.12}}],"borders":["AUT","CZE","HUN","POL","UKR"],"continent":"Europe","coordinate":{"latitude":48.66666666,"longitude":19.5},"area":49037,"population":5458827,"resource":{"map":"https://goo.gl/maps/uNSH2wW4bLoZVYJj7","flag":{"uri":"https://flagcdn.com/sk.svg","mediaType":"image/svg\u002Bxml"}},"isExcluded":false},{"cca2":"VA","translations":[{"language":"English","name":"Vatican City"},{"language":"French","name":"Cit\u00E9 du Vatican"}],"capitals":[{"name":"Vatican City","coordinate":{"latitude":41.9,"longitude":12.45}}],"borders":["ITA"],"continent":"Europe","coordinate":{"latitude":41.9,"longitude":12.45},"area":0.44,"population":451,"resource":{"map":"https://goo.gl/maps/DTKvw5Bd1QZaDZmE8","flag":{"uri":"https://flagcdn.com/va.svg","mediaType":"image/svg\u002Bxml"}},"isExcluded":false},{"cca2":"LB","translations":[{"language":"English","name":"Lebanon"},{"language":"French","name":"Liban"}],"capitals":[{"name":"Beirut","coordinate":{"latitude":33.87,"longitude":35.5}}],"borders":["ISR","SYR"],"continent":"Asia","coordinate":{"latitude":33.83333333,"longitude":35.83333333},"area":10452,"population":6825442,"resource":{"map":"https://goo.gl/maps/Sz5VCU8UFBqMyTdc9","flag":{"uri":"https://flagcdn.com/lb.svg","mediaType":"image/svg\u002Bxml"}},"isExcluded":false},{"cca2":"MD","translations":[{"language":"English","name":"Moldova"},{"language":"French","name":"Moldavie"}],"capitals":[{"name":"Chi\u0219in\u0103u","coordinate":{"latitude":47.01,"longitude":28.9}}],"borders":["ROU","UKR"],"continent":"Europe","coordinate":{"latitude":47,"longitude":29},"area":33846,"population":2617820,"resource":{"map":"https://goo.gl/maps/JjmyUuULujnDeFPf7","flag":{"uri":"https://flagcdn.com/md.svg","mediaType":"image/svg\u002Bxml"}},"isExcluded":false},{"cca2":"FI","translations":[{"language":"English","name":"Finland"},{"language":"French","name":"Finlande"}],"capitals":[{"name":"Helsinki","coordinate":{"latitude":60.17,"longitude":24.93}}],"borders":["NOR","SWE","RUS"],"continent":"Europe","coordinate":{"latitude":64,"longitude":26},"area":338424,"population":5530719,"resource":{"map":"https://goo.gl/maps/HjgWDCNKRAYHrkMn8","flag":{"uri":"https://flagcdn.com/fi.svg","mediaType":"image/svg\u002Bxml"}},"isExcluded":false},{"cca2":"TW","translations":[{"language":"English","name":"Taiwan"},{"language":"French","name":"Ta\u00EFwan"}],"capitals":[{"name":"Taipei","coordinate":{"latitude":25.03,"longitude":121.52}}],"borders":[],"continent":"Asia","coordinate":{"latitude":23.5,"longitude":121},"area":36193,"population":23503349,"resource":{"map":"https://goo.gl/maps/HgMKFQjNadF3Wa6B6","flag":{"uri":"https://flagcdn.com/tw.svg","mediaType":"image/svg\u002Bxml"}},"isExcluded":false},{"cca2":"FM","translations":[{"language":"English","name":"Micronesia"},{"language":"French","name":"Micron\u00E9sie"}],"capitals":[{"name":"Palikir","coordinate":{"latitude":6.92,"longitude":158.15}}],"borders":[],"continent":"Oceania","coordinate":{"latitude":6.91666666,"longitude":158.25},"area":702,"population":115021,"resource":{"map":"https://goo.gl/maps/LLcnofC5LxZsJXTo8","flag":{"uri":"https://flagcdn.com/fm.svg","mediaType":"image/svg\u002Bxml"}},"isExcluded":false},{"cca2":"VN","translations":[{"language":"English","name":"Vietnam"},{"language":"French","name":"Vi\u00EAt Nam"}],"capitals":[{"name":"Hanoi","coordinate":{"latitude":21.03,"longitude":105.85}}],"borders":["KHM","CHN","LAO"],"continent":"Asia","coordinate":{"latitude":16.16666666,"longitude":107.83333333},"area":331212,"population":97338583,"resource":{"map":"https://goo.gl/maps/PCpVt9WzdJ9A9nEZ9","flag":{"uri":"https://flagcdn.com/vn.svg","mediaType":"image/svg\u002Bxml"}},"isExcluded":false},{"cca2":"PF","translations":[{"language":"English","name":"French Polynesia"},{"language":"French","name":"Polyn\u00E9sie fran\u00E7aise"}],"capitals":[{"name":"Papeet\u0113","coordinate":{"latitude":-17.53,"longitude":-149.56}}],"borders":[],"continent":"Oceania","coordinate":{"latitude":-17.6797,"longitude":-149.4068},"area":4167,"population":280904,"resource":{"map":"https://goo.gl/maps/xgg6BQTRyeQg4e1m6","flag":{"uri":"https://flagcdn.com/pf.svg","mediaType":"image/svg\u002Bxml"}},"isExcluded":false},{"cca2":"TK","translations":[{"language":"English","name":"Tokelau"},{"language":"French","name":"Tokelau"}],"capitals":[{"name":"Fakaofo","coordinate":{"latitude":-9.38,"longitude":-171.22}}],"borders":[],"continent":"Oceania","coordinate":{"latitude":-9,"longitude":-172},"area":12,"population":1411,"resource":{"map":"https://goo.gl/maps/Ap5qN8qien6pT9UN6","flag":{"uri":"https://flagcdn.com/tk.svg","mediaType":"image/svg\u002Bxml"}},"isExcluded":false},{"cca2":"DE","translations":[{"language":"English","name":"Germany"},{"language":"French","name":"Allemagne"}],"capitals":[{"name":"Berlin","coordinate":{"latitude":52.52,"longitude":13.4}}],"borders":["AUT","BEL","CZE","DNK","FRA","LUX","NLD","POL","CHE"],"continent":"Europe","coordinate":{"latitude":51,"longitude":9},"area":357114,"population":83240525,"resource":{"map":"https://goo.gl/maps/mD9FBMq1nvXUBrkv6","flag":{"uri":"https://flagcdn.com/de.svg","mediaType":"image/svg\u002Bxml"}},"isExcluded":false},{"cca2":"UG","translations":[{"language":"English","name":"Uganda"},{"language":"French","name":"Ouganda"}],"capitals":[{"name":"Kampala","coordinate":{"latitude":0.32,"longitude":32.55}}],"borders":["COD","KEN","RWA","SSD","TZA"],"continent":"Africa","coordinate":{"latitude":1,"longitude":32},"area":241550,"population":45741000,"resource":{"map":"https://goo.gl/maps/Y7812hFiGa8LD9N68","flag":{"uri":"https://flagcdn.com/ug.svg","mediaType":"image/svg\u002Bxml"}},"isExcluded":false},{"cca2":"SX","translations":[{"language":"English","name":"Sint Maarten"},{"language":"French","name":"Saint-Martin"}],"capitals":[{"name":"Philipsburg","coordinate":{"latitude":18.02,"longitude":-63.03}}],"borders":["MAF"],"continent":"CentralAmerica","coordinate":{"latitude":18.033333,"longitude":-63.05},"area":34,"population":40812,"resource":{"map":"https://goo.gl/maps/DjvcESy1a1oGEZuNA","flag":{"uri":"https://flagcdn.com/sx.svg","mediaType":"image/svg\u002Bxml"}},"isExcluded":false},{"cca2":"KZ","translations":[{"language":"English","name":"Kazakhstan"},{"language":"French","name":"Kazakhstan"}],"capitals":[{"name":"Astana","coordinate":{"latitude":51.16,"longitude":71.45}}],"borders":["CHN","KGZ","RUS","TKM","UZB"],"continent":"Asia","coordinate":{"latitude":48.0196,"longitude":66.9237},"area":2724900,"population":18754440,"resource":{"map":"https://goo.gl/maps/8VohJGu7ShuzZYyeA","flag":{"uri":"https://flagcdn.com/kz.svg","mediaType":"image/svg\u002Bxml"}},"isExcluded":false},{"cca2":"MP","translations":[{"language":"English","name":"Northern Mariana Islands"},{"language":"French","name":"\u00CEles Mariannes du Nord"}],"capitals":[{"name":"Saipan","coordinate":{"latitude":15.2,"longitude":145.75}}],"borders":[],"continent":"Oceania","coordinate":{"latitude":15.2,"longitude":145.75},"area":464,"population":57557,"resource":{"map":"https://goo.gl/maps/cpZ67knoRAcfu1417","flag":{"uri":"https://flagcdn.com/mp.svg","mediaType":"image/svg\u002Bxml"}},"isExcluded":false},{"cca2":"DM","translations":[{"language":"English","name":"Dominica"},{"language":"French","name":"Dominique"}],"capitals":[{"name":"Roseau","coordinate":{"latitude":15.3,"longitude":-61.4}}],"borders":[],"continent":"CentralAmerica","coordinate":{"latitude":15.41666666,"longitude":-61.33333333},"area":751,"population":71991,"resource":{"map":"https://goo.gl/maps/HSKdHYpFC8oHHuyV7","flag":{"uri":"https://flagcdn.com/dm.svg","mediaType":"image/svg\u002Bxml"}},"isExcluded":false},{"cca2":"SS","translations":[{"language":"English","name":"South Sudan"},{"language":"French","name":"Soudan du Sud"}],"capitals":[{"name":"Juba","coordinate":{"latitude":4.85,"longitude":31.62}}],"borders":["CAF","COD","ETH","KEN","SDN","UGA"],"continent":"Africa","coordinate":{"latitude":7,"longitude":30},"area":619745,"population":11193729,"resource":{"map":"https://goo.gl/maps/Zm1AYCXb9HSNF1P27","flag":{"uri":"https://flagcdn.com/ss.svg","mediaType":"image/svg\u002Bxml"}},"isExcluded":false},{"cca2":"AS","translations":[{"language":"English","name":"American Samoa"},{"language":"French","name":"Samoa am\u00E9ricaines"}],"capitals":[{"name":"Pago Pago","coordinate":{"latitude":-14.27,"longitude":-170.7}}],"borders":[],"continent":"Oceania","coordinate":{"latitude":-14.33333333,"longitude":-170},"area":199,"population":55197,"resource":{"map":"https://goo.gl/maps/Re9ePMjwP1sFCBFA6","flag":{"uri":"https://flagcdn.com/as.svg","mediaType":"image/svg\u002Bxml"}},"isExcluded":false},{"cca2":"PN","translations":[{"language":"English","name":"Pitcairn Islands"},{"language":"French","name":"\u00CEles Pitcairn"}],"capitals":[{"name":"Adamstown","coordinate":{"latitude":-25.07,"longitude":-130.08}}],"borders":[],"continent":"Oceania","coordinate":{"latitude":-25.06666666,"longitude":-130.1},"area":47,"population":56,"resource":{"map":"https://goo.gl/maps/XGJMnMAigXjXcxSa7","flag":{"uri":"https://flagcdn.com/pn.svg","mediaType":"image/svg\u002Bxml"}},"isExcluded":false},{"cca2":"TJ","translations":[{"language":"English","name":"Tajikistan"},{"language":"French","name":"Tadjikistan"}],"capitals":[{"name":"Dushanbe","coordinate":{"latitude":38.55,"longitude":68.77}}],"borders":["AFG","CHN","KGZ","UZB"],"continent":"Asia","coordinate":{"latitude":39,"longitude":71},"area":143100,"population":9537642,"resource":{"map":"https://goo.gl/maps/8rQgW88jEXijhVb58","flag":{"uri":"https://flagcdn.com/tj.svg","mediaType":"image/svg\u002Bxml"}},"isExcluded":false},{"cca2":"WF","translations":[{"language":"English","name":"Wallis and Futuna"},{"language":"French","name":"Wallis-et-Futuna"}],"capitals":[{"name":"Mata-Utu","coordinate":{"latitude":-13.95,"longitude":-171.93}}],"borders":[],"continent":"Oceania","coordinate":{"latitude":-13.3,"longitude":-176.2},"area":142,"population":11750,"resource":{"map":"https://goo.gl/maps/CzVqK74QYtbHv65r5","flag":{"uri":"https://flagcdn.com/wf.svg","mediaType":"image/svg\u002Bxml"}},"isExcluded":false},{"cca2":"SI","translations":[{"language":"English","name":"Slovenia"},{"language":"French","name":"Slov\u00E9nie"}],"capitals":[{"name":"Ljubljana","coordinate":{"latitude":46.05,"longitude":14.52}}],"borders":["AUT","HRV","ITA","HUN"],"continent":"Europe","coordinate":{"latitude":46.11666666,"longitude":14.81666666},"area":20273,"population":2100126,"resource":{"map":"https://goo.gl/maps/7zgFmswcCJh5L5D49","flag":{"uri":"https://flagcdn.com/si.svg","mediaType":"image/svg\u002Bxml"}},"isExcluded":false},{"cca2":"CV","translations":[{"language":"English","name":"Cape Verde"},{"language":"French","name":"\u00CEles du Cap-Vert"}],"capitals":[{"name":"Praia","coordinate":{"latitude":14.92,"longitude":-23.52}}],"borders":[],"continent":"Africa","coordinate":{"latitude":16.5388,"longitude":-23.0418},"area":4033,"population":555988,"resource":{"map":"https://goo.gl/maps/Kc9vy5ChjuiAgMfXA","flag":{"uri":"https://flagcdn.com/cv.svg","mediaType":"image/svg\u002Bxml"}},"isExcluded":false},{"cca2":"MV","translations":[{"language":"English","name":"Maldives"},{"language":"French","name":"Maldives"}],"capitals":[{"name":"Mal\u00E9","coordinate":{"latitude":4.17,"longitude":73.51}}],"borders":[],"continent":"Asia","coordinate":{"latitude":3.25,"longitude":73},"area":300,"population":540542,"resource":{"map":"https://goo.gl/maps/MNAWGq9vEdbZ9vUV7","flag":{"uri":"https://flagcdn.com/mv.svg","mediaType":"image/svg\u002Bxml"}},"isExcluded":false},{"cca2":"YE","translations":[{"language":"English","name":"Yemen"},{"language":"French","name":"Y\u00E9men"}],"capitals":[{"name":"Sana\u0027a","coordinate":{"latitude":15.37,"longitude":44.19}}],"borders":["OMN","SAU"],"continent":"Asia","coordinate":{"latitude":15,"longitude":48},"area":527968,"population":29825968,"resource":{"map":"https://goo.gl/maps/WCmE76HKcLideQQw7","flag":{"uri":"https://flagcdn.com/ye.svg","mediaType":"image/svg\u002Bxml"}},"isExcluded":false},{"cca2":"KP","translations":[{"language":"English","name":"North Korea"},{"language":"French","name":"Cor\u00E9e du Nord"}],"capitals":[{"name":"Pyongyang","coordinate":{"latitude":39.02,"longitude":125.75}}],"borders":["CHN","KOR","RUS"],"continent":"Asia","coordinate":{"latitude":40,"longitude":127},"area":120538,"population":25778815,"resource":{"map":"https://goo.gl/maps/9q5T2DMeH5JL7Tky6","flag":{"uri":"https://flagcdn.com/kp.svg","mediaType":"image/svg\u002Bxml"}},"isExcluded":false},{"cca2":"GE","translations":[{"language":"English","name":"Georgia"},{"language":"French","name":"G\u00E9orgie"}],"capitals":[{"name":"Tbilisi","coordinate":{"latitude":41.68,"longitude":44.83}}],"borders":["ARM","AZE","RUS","TUR"],"continent":"Asia","coordinate":{"latitude":42,"longitude":43.5},"area":69700,"population":3714000,"resource":{"map":"https://goo.gl/maps/bvCaGBePR1ZEDK5cA","flag":{"uri":"https://flagcdn.com/ge.svg","mediaType":"image/svg\u002Bxml"}},"isExcluded":false},{"cca2":"BE","translations":[{"language":"English","name":"Belgium"},{"language":"French","name":"Belgique"}],"capitals":[{"name":"Brussels","coordinate":{"latitude":50.83,"longitude":4.33}}],"borders":["FRA","DEU","LUX","NLD"],"continent":"Europe","coordinate":{"latitude":50.83333333,"longitude":4},"area":30528,"population":11555997,"resource":{"map":"https://goo.gl/maps/UQQzat85TCtPRXAL8","flag":{"uri":"https://flagcdn.com/be.svg","mediaType":"image/svg\u002Bxml"}},"isExcluded":false},{"cca2":"UZ","translations":[{"language":"English","name":"Uzbekistan"},{"language":"French","name":"Ouzb\u00E9kistan"}],"capitals":[{"name":"Tashkent","coordinate":{"latitude":41.32,"longitude":69.25}}],"borders":["AFG","KAZ","KGZ","TJK","TKM"],"continent":"Asia","coordinate":{"latitude":41,"longitude":64},"area":447400,"population":34232050,"resource":{"map":"https://goo.gl/maps/AJpo6MjMx23qSWCz8","flag":{"uri":"https://flagcdn.com/uz.svg","mediaType":"image/svg\u002Bxml"}},"isExcluded":false},{"cca2":"DO","translations":[{"language":"English","name":"Dominican Republic"},{"language":"French","name":"R\u00E9publique dominicaine"}],"capitals":[{"name":"Santo Domingo","coordinate":{"latitude":18.47,"longitude":-69.9}}],"borders":["HTI"],"continent":"CentralAmerica","coordinate":{"latitude":19,"longitude":-70.66666666},"area":48671,"population":10847904,"resource":{"map":"https://goo.gl/maps/soxooTHxEeiAbn3UA","flag":{"uri":"https://flagcdn.com/do.svg","mediaType":"image/svg\u002Bxml"}},"isExcluded":false},{"cca2":"PT","translations":[{"language":"English","name":"Portugal"},{"language":"French","name":"Portugal"}],"capitals":[{"name":"Lisbon","coordinate":{"latitude":38.72,"longitude":-9.13}}],"borders":["ESP"],"continent":"Europe","coordinate":{"latitude":39.5,"longitude":-8},"area":92090,"population":10305564,"resource":{"map":"https://goo.gl/maps/BaTBSyc4GWMmbAKB8","flag":{"uri":"https://flagcdn.com/pt.svg","mediaType":"image/svg\u002Bxml"}},"isExcluded":false},{"cca2":"FO","translations":[{"language":"English","name":"Faroe Islands"},{"language":"French","name":"\u00CEles F\u00E9ro\u00E9"}],"capitals":[{"name":"T\u00F3rshavn","coordinate":{"latitude":62.01,"longitude":-6.77}}],"borders":[],"continent":"Europe","coordinate":{"latitude":62,"longitude":-7},"area":1393,"population":48865,"resource":{"map":"https://goo.gl/maps/6sTru4SmHdEVcNkM6","flag":{"uri":"https://flagcdn.com/fo.svg","mediaType":"image/svg\u002Bxml"}},"isExcluded":false},{"cca2":"EH","translations":[{"language":"English","name":"Western Sahara"},{"language":"French","name":"Sahara Occidental"}],"capitals":[{"name":"El Aai\u00FAn","coordinate":{"latitude":-13.28,"longitude":27.14}}],"borders":["DZA","MRT","MAR"],"continent":"Africa","coordinate":{"latitude":24.5,"longitude":-13},"area":266000,"population":510713,"resource":{"map":"https://goo.gl/maps/7nU3mB69vP6zQp7A8","flag":{"uri":"https://flagcdn.com/eh.svg","mediaType":"image/svg\u002Bxml"}},"isExcluded":false},{"cca2":"MQ","translations":[{"language":"English","name":"Martinique"},{"language":"French","name":"Martinique"}],"capitals":[{"name":"Fort-de-France","coordinate":{"latitude":14.6,"longitude":-61.08}}],"borders":[],"continent":"CentralAmerica","coordinate":{"latitude":14.666667,"longitude":-61},"area":1128,"population":378243,"resource":{"map":"https://goo.gl/maps/87ER7sDAFU7JjcvR6","flag":{"uri":"https://flagcdn.com/mq.svg","mediaType":"image/svg\u002Bxml"}},"isExcluded":false},{"cca2":"LC","translations":[{"language":"English","name":"Saint Lucia"},{"language":"French","name":"Sainte-Lucie"}],"capitals":[{"name":"Castries","coordinate":{"latitude":14,"longitude":-61}}],"borders":[],"continent":"CentralAmerica","coordinate":{"latitude":13.88333333,"longitude":-60.96666666},"area":616,"population":183629,"resource":{"map":"https://goo.gl/maps/4HhJ2jkPdSL9BPRcA","flag":{"uri":"https://flagcdn.com/lc.svg","mediaType":"image/svg\u002Bxml"}},"isExcluded":false},{"cca2":"MZ","translations":[{"language":"English","name":"Mozambique"},{"language":"French","name":"Mozambique"}],"capitals":[{"name":"Maputo","coordinate":{"latitude":-25.95,"longitude":32.58}}],"borders":["MWI","ZAF","SWZ","TZA","ZMB","ZWE"],"continent":"Africa","coordinate":{"latitude":-18.25,"longitude":35},"area":801590,"population":31255435,"resource":{"map":"https://goo.gl/maps/xCLcY9fzU6x4Pueu5","flag":{"uri":"https://flagcdn.com/mz.svg","mediaType":"image/svg\u002Bxml"}},"isExcluded":false},{"cca2":"TH","translations":[{"language":"English","name":"Thailand"},{"language":"French","name":"Tha\u00EFlande"}],"capitals":[{"name":"Bangkok","coordinate":{"latitude":13.75,"longitude":100.52}}],"borders":["MMR","KHM","LAO","MYS"],"continent":"Asia","coordinate":{"latitude":15,"longitude":100},"area":513120,"population":69799978,"resource":{"map":"https://goo.gl/maps/qeU6uqsfW4nCCwzw9","flag":{"uri":"https://flagcdn.com/th.svg","mediaType":"image/svg\u002Bxml"}},"isExcluded":false},{"cca2":"IL","translations":[{"language":"English","name":"Israel"},{"language":"French","name":"Isra\u00EBl"}],"capitals":[{"name":"Jerusalem","coordinate":{"latitude":31.77,"longitude":35.23}}],"borders":["EGY","JOR","LBN","PSE","SYR"],"continent":"Asia","coordinate":{"latitude":31.47,"longitude":35.13},"area":20770,"population":9216900,"resource":{"map":"https://goo.gl/maps/6UY1AH8XeafVwdC97","flag":{"uri":"https://flagcdn.com/il.svg","mediaType":"image/svg\u002Bxml"}},"isExcluded":false},{"cca2":"FK","translations":[{"language":"English","name":"Falkland Islands"},{"language":"French","name":"\u00CEles Malouines"}],"capitals":[{"name":"Stanley","coordinate":{"latitude":-51.7,"longitude":-57.85}}],"borders":[],"continent":"SouthAmerica","coordinate":{"latitude":-51.75,"longitude":-59},"area":12173,"population":2563,"resource":{"map":"https://goo.gl/maps/TZH1x7AGanQKifNk7","flag":{"uri":"https://flagcdn.com/fk.svg","mediaType":"image/svg\u002Bxml"}},"isExcluded":false},{"cca2":"BJ","translations":[{"language":"English","name":"Benin"},{"language":"French","name":"B\u00E9nin"}],"capitals":[{"name":"Porto-Novo","coordinate":{"latitude":6.48,"longitude":2.62}}],"borders":["BFA","NER","NGA","TGO"],"continent":"Africa","coordinate":{"latitude":9.5,"longitude":2.25},"area":112622,"population":12123198,"resource":{"map":"https://goo.gl/maps/uMw1BsHEXQYgVFFu6","flag":{"uri":"https://flagcdn.com/bj.svg","mediaType":"image/svg\u002Bxml"}},"isExcluded":false},{"cca2":"ID","translations":[{"language":"English","name":"Indonesia"},{"language":"French","name":"Indon\u00E9sie"}],"capitals":[{"name":"Jakarta","coordinate":{"latitude":-6.17,"longitude":106.82}}],"borders":["TLS","MYS","PNG"],"continent":"Asia","coordinate":{"latitude":-5,"longitude":120},"area":1904569,"population":273523621,"resource":{"map":"https://goo.gl/maps/9gfPupm5bffixiFJ6","flag":{"uri":"https://flagcdn.com/id.svg","mediaType":"image/svg\u002Bxml"}},"isExcluded":false},{"cca2":"PG","translations":[{"language":"English","name":"Papua New Guinea"},{"language":"French","name":"Papouasie-Nouvelle-Guin\u00E9e"}],"capitals":[{"name":"Port Moresby","coordinate":{"latitude":-9.45,"longitude":147.18}}],"borders":["IDN"],"continent":"Oceania","coordinate":{"latitude":-6,"longitude":147},"area":462840,"population":8947027,"resource":{"map":"https://goo.gl/maps/ChGmzZBjZ3vnBwR2A","flag":{"uri":"https://flagcdn.com/pg.svg","mediaType":"image/svg\u002Bxml"}},"isExcluded":false},{"cca2":"BH","translations":[{"language":"English","name":"Bahrain"},{"language":"French","name":"Bahre\u00EFn"}],"capitals":[{"name":"Manama","coordinate":{"latitude":26.23,"longitude":50.57}}],"borders":[],"continent":"Asia","coordinate":{"latitude":26,"longitude":50.55},"area":765,"population":1701583,"resource":{"map":"https://goo.gl/maps/5Zue99Zc6vFBHxzJ7","flag":{"uri":"https://flagcdn.com/bh.svg","mediaType":"image/svg\u002Bxml"}},"isExcluded":false},{"cca2":"MO","translations":[{"language":"English","name":"Macau"},{"language":"French","name":"Macao"}],"capitals":[],"borders":["CHN"],"continent":"Asia","coordinate":{"latitude":22.16666666,"longitude":113.55},"area":30,"population":649342,"resource":{"map":"https://goo.gl/maps/whymRdk3dZFfAAs4A","flag":{"uri":"https://flagcdn.com/mo.svg","mediaType":"image/svg\u002Bxml"}},"isExcluded":false},{"cca2":"GR","translations":[{"language":"English","name":"Greece"},{"language":"French","name":"Gr\u00E8ce"}],"capitals":[{"name":"Athens","coordinate":{"latitude":37.98,"longitude":23.73}}],"borders":["ALB","BGR","TUR","MKD"],"continent":"Europe","coordinate":{"latitude":39,"longitude":22},"area":131990,"population":10715549,"resource":{"map":"https://goo.gl/maps/LHGcAvuRyD2iKECC6","flag":{"uri":"https://flagcdn.com/gr.svg","mediaType":"image/svg\u002Bxml"}},"isExcluded":false},{"cca2":"SY","translations":[{"language":"English","name":"Syria"},{"language":"French","name":"Syrie"}],"capitals":[{"name":"Damascus","coordinate":{"latitude":33.5,"longitude":36.3}}],"borders":["IRQ","ISR","JOR","LBN","TUR"],"continent":"Asia","coordinate":{"latitude":35,"longitude":38},"area":185180,"population":17500657,"resource":{"map":"https://goo.gl/maps/Xe3VnFbwdb4nv2SM9","flag":{"uri":"https://flagcdn.com/sy.svg","mediaType":"image/svg\u002Bxml"}},"isExcluded":false},{"cca2":"CF","translations":[{"language":"English","name":"Central African Republic"},{"language":"French","name":"R\u00E9publique centrafricaine"}],"capitals":[{"name":"Bangui","coordinate":{"latitude":4.37,"longitude":18.58}}],"borders":["CMR","TCD","COD","COG","SSD","SDN"],"continent":"Africa","coordinate":{"latitude":7,"longitude":21},"area":622984,"population":4829764,"resource":{"map":"https://goo.gl/maps/51V8dsi2rGYC9n3c9","flag":{"uri":"https://flagcdn.com/cf.svg","mediaType":"image/svg\u002Bxml"}},"isExcluded":false},{"cca2":"GU","translations":[{"language":"English","name":"Guam"},{"language":"French","name":"Guam"}],"capitals":[{"name":"Hag\u00E5t\u00F1a","coordinate":{"latitude":13.48,"longitude":144.75}}],"borders":[],"continent":"Oceania","coordinate":{"latitude":13.46666666,"longitude":144.78333333},"area":549,"population":168783,"resource":{"map":"https://goo.gl/maps/Xfnq2i279b18cH3C9","flag":{"uri":"https://flagcdn.com/gu.svg","mediaType":"image/svg\u002Bxml"}},"isExcluded":false},{"cca2":"PL","translations":[{"language":"English","name":"Poland"},{"language":"French","name":"Pologne"}],"capitals":[{"name":"Warsaw","coordinate":{"latitude":52.25,"longitude":21}}],"borders":["BLR","CZE","DEU","LTU","RUS","SVK","UKR"],"continent":"Europe","coordinate":{"latitude":52,"longitude":20},"area":312679,"population":37950802,"resource":{"map":"https://goo.gl/maps/gY9Xw4Sf4415P4949","flag":{"uri":"https://flagcdn.com/pl.svg","mediaType":"image/svg\u002Bxml"}},"isExcluded":false},{"cca2":"BV","translations":[{"language":"English","name":"Bouvet Island"},{"language":"French","name":"\u00CEle Bouvet"}],"capitals":[],"borders":[],"continent":"Antarctica","coordinate":{"latitude":54.4208,"longitude":3.3464},"area":49,"population":0,"resource":{"map":"https://goo.gl/maps/7WRQAEKZb4uK36yi9","flag":{"uri":"https://flagcdn.com/bv.svg","mediaType":"image/svg\u002Bxml"}},"isExcluded":true},{"cca2":"AQ","translations":[{"language":"English","name":"Antarctica"},{"language":"French","name":"Antarctique"}],"capitals":[],"borders":[],"continent":"Antarctica","coordinate":{"latitude":-90,"longitude":0},"area":14000000,"population":1000,"resource":{"map":"https://goo.gl/maps/kyBuJriu4itiXank7","flag":{"uri":"https://flagcdn.com/aq.svg","mediaType":"image/svg\u002Bxml"}},"isExcluded":false},{"cca2":"US","translations":[{"language":"English","name":"United States"},{"language":"French","name":"\u00C9tats-Unis"}],"capitals":[{"name":"Washington, D.C.","coordinate":{"latitude":38.89,"longitude":-77.05}}],"borders":["CAN","MEX"],"continent":"NorthAmerica","coordinate":{"latitude":38,"longitude":-97},"area":9372610,"population":329484123,"resource":{"map":"https://goo.gl/maps/e8M246zY4BSjkjAv6","flag":{"uri":"https://flagcdn.com/us.svg","mediaType":"image/svg\u002Bxml"}},"isExcluded":false},{"cca2":"ZM","translations":[{"language":"English","name":"Zambia"},{"language":"French","name":"Zambie"}],"capitals":[{"name":"Lusaka","coordinate":{"latitude":-15.42,"longitude":28.28}}],"borders":["AGO","BWA","COD","MWI","MOZ","NAM","TZA","ZWE"],"continent":"Africa","coordinate":{"latitude":-15,"longitude":30},"area":752612,"population":18383956,"resource":{"map":"https://goo.gl/maps/mweBcqvW8TppZW6q9","flag":{"uri":"https://flagcdn.com/zm.svg","mediaType":"image/svg\u002Bxml"}},"isExcluded":false},{"cca2":"KI","translations":[{"language":"English","name":"Kiribati"},{"language":"French","name":"Kiribati"}],"capitals":[{"name":"South Tarawa","coordinate":{"latitude":1.33,"longitude":172.98}}],"borders":[],"continent":"Oceania","coordinate":{"latitude":1.41666666,"longitude":173},"area":811,"population":119446,"resource":{"map":"https://goo.gl/maps/NBfYvrndW4skAimw9","flag":{"uri":"https://flagcdn.com/ki.svg","mediaType":"image/svg\u002Bxml"}},"isExcluded":false},{"cca2":"PE","translations":[{"language":"English","name":"Peru"},{"language":"French","name":"P\u00E9rou"}],"capitals":[{"name":"Lima","coordinate":{"latitude":-12.05,"longitude":-77.05}}],"borders":["BOL","BRA","CHL","COL","ECU"],"continent":"SouthAmerica","coordinate":{"latitude":-10,"longitude":-76},"area":1285216,"population":32971846,"resource":{"map":"https://goo.gl/maps/uDWEUaXNcZTng1fP6","flag":{"uri":"https://flagcdn.com/pe.svg","mediaType":"image/svg\u002Bxml"}},"isExcluded":false},{"cca2":"UY","translations":[{"language":"English","name":"Uruguay"},{"language":"French","name":"Uruguay"}],"capitals":[{"name":"Montevideo","coordinate":{"latitude":-34.85,"longitude":-56.17}}],"borders":["ARG","BRA"],"continent":"SouthAmerica","coordinate":{"latitude":-33,"longitude":-56},"area":181034,"population":3473727,"resource":{"map":"https://goo.gl/maps/tiQ9Baekb1jQtDSD9","flag":{"uri":"https://flagcdn.com/uy.svg","mediaType":"image/svg\u002Bxml"}},"isExcluded":false},{"cca2":"AI","translations":[{"language":"English","name":"Anguilla"},{"language":"French","name":"Anguilla"}],"capitals":[{"name":"The Valley","coordinate":{"latitude":18.22,"longitude":-63.05}}],"borders":[],"continent":"CentralAmerica","coordinate":{"latitude":18.25,"longitude":-63.16666666},"area":91,"population":13452,"resource":{"map":"https://goo.gl/maps/3KgLnEyN7amdno2p9","flag":{"uri":"https://flagcdn.com/ai.svg","mediaType":"image/svg\u002Bxml"}},"isExcluded":false},{"cca2":"IR","translations":[{"language":"English","name":"Iran"},{"language":"French","name":"Iran"}],"capitals":[{"name":"Tehran","coordinate":{"latitude":35.7,"longitude":51.42}}],"borders":["AFG","ARM","AZE","IRQ","PAK","TUR","TKM"],"continent":"Asia","coordinate":{"latitude":32,"longitude":53},"area":1648195,"population":83992953,"resource":{"map":"https://goo.gl/maps/dMgEGuacBPGYQnjY7","flag":{"uri":"https://flagcdn.com/ir.svg","mediaType":"image/svg\u002Bxml"}},"isExcluded":false},{"cca2":"SV","translations":[{"language":"English","name":"El Salvador"},{"language":"French","name":"Salvador"}],"capitals":[{"name":"San Salvador","coordinate":{"latitude":13.7,"longitude":-89.2}}],"borders":["GTM","HND"],"continent":"CentralAmerica","coordinate":{"latitude":13.83333333,"longitude":-88.91666666},"area":21041,"population":6486201,"resource":{"map":"https://goo.gl/maps/cZnCEi5sEMQtKKcB7","flag":{"uri":"https://flagcdn.com/sv.svg","mediaType":"image/svg\u002Bxml"}},"isExcluded":false},{"cca2":"HU","translations":[{"language":"English","name":"Hungary"},{"language":"French","name":"Hongrie"}],"capitals":[{"name":"Budapest","coordinate":{"latitude":47.5,"longitude":19.08}}],"borders":["AUT","HRV","ROU","SRB","SVK","SVN","UKR"],"continent":"Europe","coordinate":{"latitude":47,"longitude":20},"area":93028,"population":9749763,"resource":{"map":"https://goo.gl/maps/9gfPupm5bffixiFJ6","flag":{"uri":"https://flagcdn.com/hu.svg","mediaType":"image/svg\u002Bxml"}},"isExcluded":false},{"cca2":"WS","translations":[{"language":"English","name":"Samoa"},{"language":"French","name":"Samoa"}],"capitals":[{"name":"Apia","coordinate":{"latitude":-13.82,"longitude":-171.77}}],"borders":[],"continent":"Oceania","coordinate":{"latitude":-13.58333333,"longitude":-172.33333333},"area":2842,"population":198410,"resource":{"map":"https://goo.gl/maps/CFC9fEFP9cfkYUBF9","flag":{"uri":"https://flagcdn.com/ws.svg","mediaType":"image/svg\u002Bxml"}},"isExcluded":false},{"cca2":"EC","translations":[{"language":"English","name":"Ecuador"},{"language":"French","name":"\u00C9quateur"}],"capitals":[{"name":"Quito","coordinate":{"latitude":-0.22,"longitude":-78.5}}],"borders":["COL","PER"],"continent":"SouthAmerica","coordinate":{"latitude":-2,"longitude":-77.5},"area":276841,"population":17643060,"resource":{"map":"https://goo.gl/maps/TbX8hUW4gcbRPZiK7","flag":{"uri":"https://flagcdn.com/ec.svg","mediaType":"image/svg\u002Bxml"}},"isExcluded":false},{"cca2":"FR","translations":[{"language":"English","name":"France"},{"language":"French","name":"France"}],"capitals":[{"name":"Paris","coordinate":{"latitude":48.87,"longitude":2.33}}],"borders":["AND","BEL","DEU","ITA","LUX","MCO","ESP","CHE"],"continent":"Europe","coordinate":{"latitude":46,"longitude":2},"area":551695,"population":67391582,"resource":{"map":"https://goo.gl/maps/g7QxxSFsWyTPKuzd7","flag":{"uri":"https://flagcdn.com/fr.svg","mediaType":"image/svg\u002Bxml"}},"isExcluded":false},{"cca2":"NG","translations":[{"language":"English","name":"Nigeria"},{"language":"French","name":"Nig\u00E9ria"}],"capitals":[{"name":"Abuja","coordinate":{"latitude":9.08,"longitude":7.53}}],"borders":["BEN","CMR","TCD","NER"],"continent":"Africa","coordinate":{"latitude":10,"longitude":8},"area":923768,"population":206139587,"resource":{"map":"https://goo.gl/maps/LTn417qWwBPFszuV9","flag":{"uri":"https://flagcdn.com/ng.svg","mediaType":"image/svg\u002Bxml"}},"isExcluded":false},{"cca2":"IN","translations":[{"language":"English","name":"India"},{"language":"French","name":"Inde"}],"capitals":[{"name":"New Delhi","coordinate":{"latitude":28.6,"longitude":77.2}}],"borders":["BGD","BTN","MMR","CHN","NPL","PAK"],"continent":"Asia","coordinate":{"latitude":20,"longitude":77},"area":3287590,"population":1380004385,"resource":{"map":"https://goo.gl/maps/WSk3fLwG4vtPQetp7","flag":{"uri":"https://flagcdn.com/in.svg","mediaType":"image/svg\u002Bxml"}},"isExcluded":false},{"cca2":"MF","translations":[{"language":"English","name":"Saint Martin"},{"language":"French","name":"Saint-Martin"}],"capitals":[{"name":"Marigot","coordinate":{"latitude":18.07,"longitude":-63.08}}],"borders":["SXM"],"continent":"CentralAmerica","coordinate":{"latitude":18.0708,"longitude":-63.0501},"area":53,"population":38659,"resource":{"map":"https://goo.gl/maps/P9ho9QuJ9EAR28JEA","flag":{"uri":"https://flagcdn.com/mf.svg","mediaType":"image/svg\u002Bxml"}},"isExcluded":true},{"cca2":"BF","translations":[{"language":"English","name":"Burkina Faso"},{"language":"French","name":"Burkina Faso"}],"capitals":[{"name":"Ouagadougou","coordinate":{"latitude":12.37,"longitude":-1.52}}],"borders":["BEN","CIV","GHA","MLI","NER","TGO"],"continent":"Africa","coordinate":{"latitude":13,"longitude":-2},"area":272967,"population":20903278,"resource":{"map":"https://goo.gl/maps/rKRmpcMbFher2ozb7","flag":{"uri":"https://flagcdn.com/bf.svg","mediaType":"image/svg\u002Bxml"}},"isExcluded":false},{"cca2":"IQ","translations":[{"language":"English","name":"Iraq"},{"language":"French","name":"Irak"}],"capitals":[{"name":"Baghdad","coordinate":{"latitude":33.33,"longitude":44.4}}],"borders":["IRN","JOR","KWT","SAU","SYR","TUR"],"continent":"Asia","coordinate":{"latitude":33,"longitude":44},"area":438317,"population":40222503,"resource":{"map":"https://goo.gl/maps/iL8Bmy1sUCW9fUk18","flag":{"uri":"https://flagcdn.com/iq.svg","mediaType":"image/svg\u002Bxml"}},"isExcluded":false},{"cca2":"KW","translations":[{"language":"English","name":"Kuwait"},{"language":"French","name":"Kowe\u00EFt"}],"capitals":[{"name":"Kuwait City","coordinate":{"latitude":29.37,"longitude":47.97}}],"borders":["IRQ","SAU"],"continent":"Asia","coordinate":{"latitude":29.5,"longitude":45.75},"area":17818,"population":4270563,"resource":{"map":"https://goo.gl/maps/aqr3aNQjS1BAvksJ7","flag":{"uri":"https://flagcdn.com/kw.svg","mediaType":"image/svg\u002Bxml"}},"isExcluded":false},{"cca2":"CZ","translations":[{"language":"English","name":"Czechia"},{"language":"French","name":"Tch\u00E9quie"}],"capitals":[{"name":"Prague","coordinate":{"latitude":50.08,"longitude":14.47}}],"borders":["AUT","DEU","POL","SVK"],"continent":"Europe","coordinate":{"latitude":49.75,"longitude":15.5},"area":78865,"population":10698896,"resource":{"map":"https://goo.gl/maps/47dmgeXMZyhDHyQW8","flag":{"uri":"https://flagcdn.com/cz.svg","mediaType":"image/svg\u002Bxml"}},"isExcluded":false},{"cca2":"MS","translations":[{"language":"English","name":"Montserrat"},{"language":"French","name":"Montserrat"}],"capitals":[{"name":"Plymouth","coordinate":{"latitude":16.7,"longitude":-62.22}}],"borders":[],"continent":"CentralAmerica","coordinate":{"latitude":16.75,"longitude":-62.2},"area":102,"population":4922,"resource":{"map":"https://goo.gl/maps/CSbe7UmxPmiwQB7GA","flag":{"uri":"https://flagcdn.com/ms.svg","mediaType":"image/svg\u002Bxml"}},"isExcluded":false},{"cca2":"MA","translations":[{"language":"English","name":"Morocco"},{"language":"French","name":"Maroc"}],"capitals":[{"name":"Rabat","coordinate":{"latitude":34.02,"longitude":-6.82}}],"borders":["DZA","ESH","ESP"],"continent":"Africa","coordinate":{"latitude":32,"longitude":-5},"area":446550,"population":36910558,"resource":{"map":"https://goo.gl/maps/6oMv3dyBZg3iaXQ5A","flag":{"uri":"https://flagcdn.com/ma.svg","mediaType":"image/svg\u002Bxml"}},"isExcluded":false},{"cca2":"NC","translations":[{"language":"English","name":"New Caledonia"},{"language":"French","name":"Nouvelle-Cal\u00E9donie"}],"capitals":[{"name":"Noum\u00E9a","coordinate":{"latitude":-22.27,"longitude":166.45}}],"borders":[],"continent":"Oceania","coordinate":{"latitude":-21.5,"longitude":165.5},"area":18575,"population":271960,"resource":{"map":"https://goo.gl/maps/cBhtCeMdob4U7FRU9","flag":{"uri":"https://flagcdn.com/nc.svg","mediaType":"image/svg\u002Bxml"}},"isExcluded":false},{"cca2":"GM","translations":[{"language":"English","name":"Gambia"},{"language":"French","name":"Gambie"}],"capitals":[{"name":"Banjul","coordinate":{"latitude":13.45,"longitude":-16.57}}],"borders":["SEN"],"continent":"Africa","coordinate":{"latitude":13.46666666,"longitude":-16.56666666},"area":10689,"population":2416664,"resource":{"map":"https://goo.gl/maps/bbGBCxxtfD2A9Z4m6","flag":{"uri":"https://flagcdn.com/gm.svg","mediaType":"image/svg\u002Bxml"}},"isExcluded":false},{"cca2":"NL","translations":[{"language":"English","name":"Netherlands"},{"language":"French","name":"Pays-Bas"}],"capitals":[{"name":"Amsterdam","coordinate":{"latitude":52.35,"longitude":4.92}}],"borders":["BEL","DEU"],"continent":"Europe","coordinate":{"latitude":52.5,"longitude":5.75},"area":41850,"population":16655799,"resource":{"map":"https://goo.gl/maps/Hv6zQswGhFxoVVBm6","flag":{"uri":"https://flagcdn.com/nl.svg","mediaType":"image/svg\u002Bxml"}},"isExcluded":false},{"cca2":"PM","translations":[{"language":"English","name":"Saint Pierre and Miquelon"},{"language":"French","name":"Saint-Pierre-et-Miquelon"}],"capitals":[{"name":"Saint-Pierre","coordinate":{"latitude":46.77,"longitude":-56.18}}],"borders":[],"continent":"NorthAmerica","coordinate":{"latitude":46.83333333,"longitude":-56.33333333},"area":242,"population":6069,"resource":{"map":"https://goo.gl/maps/bUM8Yc8pA8ghyhmt6","flag":{"uri":"https://flagcdn.com/pm.svg","mediaType":"image/svg\u002Bxml"}},"isExcluded":false},{"cca2":"BL","translations":[{"language":"English","name":"Saint Barth\u00E9lemy"},{"language":"French","name":"Saint-Barth\u00E9lemy"}],"capitals":[{"name":"Gustavia","coordinate":{"latitude":17.88,"longitude":-62.85}}],"borders":[],"continent":"CentralAmerica","coordinate":{"latitude":18.5,"longitude":-63.41666666},"area":21,"population":4255,"resource":{"map":"https://goo.gl/maps/Mc7GqH466S7AAk297","flag":{"uri":"https://flagcdn.com/bl.svg","mediaType":"image/svg\u002Bxml"}},"isExcluded":false},{"cca2":"HK","translations":[{"language":"English","name":"Hong Kong"},{"language":"French","name":"Hong Kong"}],"capitals":[{"name":"City of Victoria","coordinate":{"latitude":22.267,"longitude":114.188}}],"borders":["CHN"],"continent":"Asia","coordinate":{"latitude":22.267,"longitude":114.188},"area":1104,"population":7500700,"resource":{"map":"https://goo.gl/maps/1sEnNmT47ffrC8MU8","flag":{"uri":"https://flagcdn.com/hk.svg","mediaType":"image/svg\u002Bxml"}},"isExcluded":false},{"cca2":"CN","translations":[{"language":"English","name":"China"},{"language":"French","name":"Chine"}],"capitals":[{"name":"Beijing","coordinate":{"latitude":39.92,"longitude":116.38}}],"borders":["AFG","BTN","MMR","HKG","IND","KAZ","NPL","PRK","KGZ","LAO","MAC","MNG","PAK","RUS","TJK","VNM"],"continent":"Asia","coordinate":{"latitude":35,"longitude":105},"area":9706961,"population":1402112000,"resource":{"map":"https://goo.gl/maps/p9qC6vgiFRRXzvGi7","flag":{"uri":"https://flagcdn.com/cn.svg","mediaType":"image/svg\u002Bxml"}},"isExcluded":false},{"cca2":"UA","translations":[{"language":"English","name":"Ukraine"},{"language":"French","name":"Ukraine"}],"capitals":[{"name":"Kyiv","coordinate":{"latitude":50.43,"longitude":30.52}}],"borders":["BLR","HUN","MDA","POL","ROU","RUS","SVK"],"continent":"Europe","coordinate":{"latitude":49,"longitude":32},"area":603500,"population":44134693,"resource":{"map":"https://goo.gl/maps/DvgJMiPJ7aozKFZv7","flag":{"uri":"https://flagcdn.com/ua.svg","mediaType":"image/svg\u002Bxml"}},"isExcluded":false},{"cca2":"BW","translations":[{"language":"English","name":"Botswana"},{"language":"French","name":"Botswana"}],"capitals":[{"name":"Gaborone","coordinate":{"latitude":-24.63,"longitude":25.9}}],"borders":["NAM","ZAF","ZMB","ZWE"],"continent":"Africa","coordinate":{"latitude":-22,"longitude":24},"area":582000,"population":2351625,"resource":{"map":"https://goo.gl/maps/E364KeLy6N4JwxwQ8","flag":{"uri":"https://flagcdn.com/bw.svg","mediaType":"image/svg\u002Bxml"}},"isExcluded":false},{"cca2":"CW","translations":[{"language":"English","name":"Cura\u00E7ao"},{"language":"French","name":"Cura\u00E7ao"}],"capitals":[{"name":"Willemstad","coordinate":{"latitude":12.1,"longitude":-68.92}}],"borders":[],"continent":"CentralAmerica","coordinate":{"latitude":12.116667,"longitude":-68.933333},"area":444,"population":155014,"resource":{"map":"https://goo.gl/maps/9D3hTeA3qKaRT7S16","flag":{"uri":"https://flagcdn.com/cw.svg","mediaType":"image/svg\u002Bxml"}},"isExcluded":false},{"cca2":"RS","translations":[{"language":"English","name":"Serbia"},{"language":"French","name":"Serbie"}],"capitals":[{"name":"Belgrade","coordinate":{"latitude":44.83,"longitude":20.5}}],"borders":["BIH","BGR","HRV","HUN","UNK","MKD","MNE","ROU"],"continent":"Europe","coordinate":{"latitude":44,"longitude":21},"area":88361,"population":6908224,"resource":{"map":"https://goo.gl/maps/2Aqof7aV2Naq8YEK8","flag":{"uri":"https://flagcdn.com/rs.svg","mediaType":"image/svg\u002Bxml"}},"isExcluded":false},{"cca2":"SE","translations":[{"language":"English","name":"Sweden"},{"language":"French","name":"Su\u00E8de"}],"capitals":[{"name":"Stockholm","coordinate":{"latitude":59.33,"longitude":18.05}}],"borders":["FIN","NOR"],"continent":"Europe","coordinate":{"latitude":62,"longitude":15},"area":450295,"population":10353442,"resource":{"map":"https://goo.gl/maps/iqygE491ADVgnBW39","flag":{"uri":"https://flagcdn.com/se.svg","mediaType":"image/svg\u002Bxml"}},"isExcluded":false},{"cca2":"SL","translations":[{"language":"English","name":"Sierra Leone"},{"language":"French","name":"Sierra Leone"}],"capitals":[{"name":"Freetown","coordinate":{"latitude":8.48,"longitude":-13.23}}],"borders":["GIN","LBR"],"continent":"Africa","coordinate":{"latitude":8.5,"longitude":-11.5},"area":71740,"population":7976985,"resource":{"map":"https://goo.gl/maps/jhacar85oq9QaeKB7","flag":{"uri":"https://flagcdn.com/sl.svg","mediaType":"image/svg\u002Bxml"}},"isExcluded":false},{"cca2":"ES","translations":[{"language":"English","name":"Spain"},{"language":"French","name":"Espagne"}],"capitals":[{"name":"Madrid","coordinate":{"latitude":40.4,"longitude":-3.68}}],"borders":["AND","FRA","GIB","PRT","MAR"],"continent":"Europe","coordinate":{"latitude":40,"longitude":-4},"area":505992,"population":47351567,"resource":{"map":"https://goo.gl/maps/138JaXW8EZzRVitY9","flag":{"uri":"https://flagcdn.com/es.svg","mediaType":"image/svg\u002Bxml"}},"isExcluded":false},{"cca2":"PA","translations":[{"language":"English","name":"Panama"},{"language":"French","name":"Panama"}],"capitals":[{"name":"Panama City","coordinate":{"latitude":8.97,"longitude":-79.53}}],"borders":["COL","CRI"],"continent":"CentralAmerica","coordinate":{"latitude":9,"longitude":-80},"area":75417,"population":4314768,"resource":{"map":"https://goo.gl/maps/sEN7sKqeawa5oPNLA","flag":{"uri":"https://flagcdn.com/pa.svg","mediaType":"image/svg\u002Bxml"}},"isExcluded":false},{"cca2":"SG","translations":[{"language":"English","name":"Singapore"},{"language":"French","name":"Singapour"}],"capitals":[{"name":"Singapore","coordinate":{"latitude":1.28,"longitude":103.85}}],"borders":[],"continent":"Asia","coordinate":{"latitude":1.36666666,"longitude":103.8},"area":710,"population":5685807,"resource":{"map":"https://goo.gl/maps/QbQt9Y9b5KFzsahV6","flag":{"uri":"https://flagcdn.com/sg.svg","mediaType":"image/svg\u002Bxml"}},"isExcluded":false},{"cca2":"LA","translations":[{"language":"English","name":"Laos"},{"language":"French","name":"Laos"}],"capitals":[{"name":"Vientiane","coordinate":{"latitude":17.97,"longitude":102.6}}],"borders":["MMR","KHM","CHN","THA","VNM"],"continent":"Asia","coordinate":{"latitude":18,"longitude":105},"area":236800,"population":7275556,"resource":{"map":"https://goo.gl/maps/F3asVB7sRKgSnwbE7","flag":{"uri":"https://flagcdn.com/la.svg","mediaType":"image/svg\u002Bxml"}},"isExcluded":false},{"cca2":"MW","translations":[{"language":"English","name":"Malawi"},{"language":"French","name":"Malawi"}],"capitals":[{"name":"Lilongwe","coordinate":{"latitude":-13.97,"longitude":33.78}}],"borders":["MOZ","TZA","ZMB"],"continent":"Africa","coordinate":{"latitude":-13.5,"longitude":34},"area":118484,"population":19129955,"resource":{"map":"https://goo.gl/maps/mc6z83pW9m98X2Ef6","flag":{"uri":"https://flagcdn.com/mw.svg","mediaType":"image/svg\u002Bxml"}},"isExcluded":false},{"cca2":"BI","translations":[{"language":"English","name":"Burundi"},{"language":"French","name":"Burundi"}],"capitals":[{"name":"Gitega","coordinate":{"latitude":-3.43,"longitude":29.93}}],"borders":["COD","RWA","TZA"],"continent":"Africa","coordinate":{"latitude":-3.5,"longitude":30},"area":27834,"population":11890781,"resource":{"map":"https://goo.gl/maps/RXPWoRrB9tfrJpUG7","flag":{"uri":"https://flagcdn.com/bi.svg","mediaType":"image/svg\u002Bxml"}},"isExcluded":false},{"cca2":"BY","translations":[{"language":"English","name":"Belarus"},{"language":"French","name":"Bi\u00E9lorussie"}],"capitals":[{"name":"Minsk","coordinate":{"latitude":53.9,"longitude":27.57}}],"borders":["LVA","LTU","POL","RUS","UKR"],"continent":"Europe","coordinate":{"latitude":53,"longitude":28},"area":207600,"population":9398861,"resource":{"map":"https://goo.gl/maps/PJUDU3EBPSszCQcu6","flag":{"uri":"https://flagcdn.com/by.svg","mediaType":"image/svg\u002Bxml"}},"isExcluded":false},{"cca2":"KY","translations":[{"language":"English","name":"Cayman Islands"},{"language":"French","name":"\u00CEles Ca\u00EFmans"}],"capitals":[{"name":"George Town","coordinate":{"latitude":19.3,"longitude":-81.38}}],"borders":[],"continent":"CentralAmerica","coordinate":{"latitude":19.3133,"longitude":-81.2546},"area":264,"population":65720,"resource":{"map":"https://goo.gl/maps/P3ZVXX3LH63t91hL8","flag":{"uri":"https://flagcdn.com/ky.svg","mediaType":"image/svg\u002Bxml"}},"isExcluded":false},{"cca2":"MY","translations":[{"language":"English","name":"Malaysia"},{"language":"French","name":"Malaisie"}],"capitals":[{"name":"Kuala Lumpur","coordinate":{"latitude":3.17,"longitude":101.7}}],"borders":["BRN","IDN","THA"],"continent":"Asia","coordinate":{"latitude":2.5,"longitude":112.5},"area":330803,"population":32365998,"resource":{"map":"https://goo.gl/maps/qrY1PNeUXGyXDcPy6","flag":{"uri":"https://flagcdn.com/my.svg","mediaType":"image/svg\u002Bxml"}},"isExcluded":false},{"cca2":"PK","translations":[{"language":"English","name":"Pakistan"},{"language":"French","name":"Pakistan"}],"capitals":[{"name":"Islamabad","coordinate":{"latitude":33.68,"longitude":73.05}}],"borders":["AFG","CHN","IND","IRN"],"continent":"Asia","coordinate":{"latitude":30,"longitude":70},"area":881912,"population":220892331,"resource":{"map":"https://goo.gl/maps/5LYujdfR5yLUXoERA","flag":{"uri":"https://flagcdn.com/pk.svg","mediaType":"image/svg\u002Bxml"}},"isExcluded":false},{"cca2":"AR","translations":[{"language":"English","name":"Argentina"},{"language":"French","name":"Argentine"}],"capitals":[{"name":"Buenos Aires","coordinate":{"latitude":-34.58,"longitude":-58.67}}],"borders":["BOL","BRA","CHL","PRY","URY"],"continent":"SouthAmerica","coordinate":{"latitude":-34,"longitude":-64},"area":2780400,"population":45376763,"resource":{"map":"https://goo.gl/maps/Z9DXNxhf2o93kvyc6","flag":{"uri":"https://flagcdn.com/ar.svg","mediaType":"image/svg\u002Bxml"}},"isExcluded":false},{"cca2":"AO","translations":[{"language":"English","name":"Angola"},{"language":"French","name":"Angola"}],"capitals":[{"name":"Luanda","coordinate":{"latitude":-8.83,"longitude":13.22}}],"borders":["COG","COD","ZMB","NAM"],"continent":"Africa","coordinate":{"latitude":-12.5,"longitude":18.5},"area":1246700,"population":32866268,"resource":{"map":"https://goo.gl/maps/q42Qbf1BmQL3fuZg9","flag":{"uri":"https://flagcdn.com/ao.svg","mediaType":"image/svg\u002Bxml"}},"isExcluded":false},{"cca2":"MT","translations":[{"language":"English","name":"Malta"},{"language":"French","name":"Malte"}],"capitals":[{"name":"Valletta","coordinate":{"latitude":35.88,"longitude":14.5}}],"borders":[],"continent":"Europe","coordinate":{"latitude":35.9375,"longitude":14.3754},"area":316,"population":525285,"resource":{"map":"https://goo.gl/maps/skXCqguxDxxEKVk47","flag":{"uri":"https://flagcdn.com/mt.svg","mediaType":"image/svg\u002Bxml"}},"isExcluded":false},{"cca2":"AW","translations":[{"language":"English","name":"Aruba"},{"language":"French","name":"Aruba"}],"capitals":[{"name":"Oranjestad","coordinate":{"latitude":12.52,"longitude":-70.03}}],"borders":[],"continent":"CentralAmerica","coordinate":{"latitude":12.5,"longitude":-69.96666666},"area":180,"population":106766,"resource":{"map":"https://goo.gl/maps/8hopbQqifHAgyZyg8","flag":{"uri":"https://flagcdn.com/aw.svg","mediaType":"image/svg\u002Bxml"}},"isExcluded":false},{"cca2":"PY","translations":[{"language":"English","name":"Paraguay"},{"language":"French","name":"Paraguay"}],"capitals":[{"name":"Asunci\u00F3n","coordinate":{"latitude":-25.28,"longitude":-57.57}}],"borders":["ARG","BOL","BRA"],"continent":"SouthAmerica","coordinate":{"latitude":-23,"longitude":-58},"area":406752,"population":7132530,"resource":{"map":"https://goo.gl/maps/JtnqG73WJn1Gx6mz6","flag":{"uri":"https://flagcdn.com/py.svg","mediaType":"image/svg\u002Bxml"}},"isExcluded":false},{"cca2":"GW","translations":[{"language":"English","name":"Guinea-Bissau"},{"language":"French","name":"Guin\u00E9e-Bissau"}],"capitals":[{"name":"Bissau","coordinate":{"latitude":11.85,"longitude":-15.58}}],"borders":["GIN","SEN"],"continent":"Africa","coordinate":{"latitude":12,"longitude":-15},"area":36125,"population":1967998,"resource":{"map":"https://goo.gl/maps/5Wyaz17miUc1zLc67","flag":{"uri":"https://flagcdn.com/gw.svg","mediaType":"image/svg\u002Bxml"}},"isExcluded":false},{"cca2":"SA","translations":[{"language":"English","name":"Saudi Arabia"},{"language":"French","name":"Arabie Saoudite"}],"capitals":[{"name":"Riyadh","coordinate":{"latitude":24.65,"longitude":46.7}}],"borders":["IRQ","JOR","KWT","OMN","QAT","ARE","YEM"],"continent":"Asia","coordinate":{"latitude":25,"longitude":45},"area":2149690,"population":34813867,"resource":{"map":"https://goo.gl/maps/5PSjvdJ1AyaLFRrG9","flag":{"uri":"https://flagcdn.com/sa.svg","mediaType":"image/svg\u002Bxml"}},"isExcluded":false},{"cca2":"GI","translations":[{"language":"English","name":"Gibraltar"},{"language":"French","name":"Gibraltar"}],"capitals":[{"name":"Gibraltar","coordinate":{"latitude":36.13,"longitude":-5.35}}],"borders":["ESP"],"continent":"Europe","coordinate":{"latitude":36.13333333,"longitude":-5.35},"area":6,"population":33691,"resource":{"map":"https://goo.gl/maps/CEoHAs1t6byCBhHFA","flag":{"uri":"https://flagcdn.com/gi.svg","mediaType":"image/svg\u002Bxml"}},"isExcluded":false},{"cca2":"NI","translations":[{"language":"English","name":"Nicaragua"},{"language":"French","name":"Nicaragua"}],"capitals":[{"name":"Managua","coordinate":{"latitude":12.13,"longitude":-86.25}}],"borders":["CRI","HND"],"continent":"CentralAmerica","coordinate":{"latitude":13,"longitude":-85},"area":130373,"population":6624554,"resource":{"map":"https://goo.gl/maps/P77LaEVkKJKXneRC6","flag":{"uri":"https://flagcdn.com/ni.svg","mediaType":"image/svg\u002Bxml"}},"isExcluded":false},{"cca2":"IE","translations":[{"language":"English","name":"Ireland"},{"language":"French","name":"Irlande"}],"capitals":[{"name":"Dublin","coordinate":{"latitude":53.32,"longitude":-6.23}}],"borders":["GBR"],"continent":"Europe","coordinate":{"latitude":53,"longitude":-8},"area":70273,"population":4994724,"resource":{"map":"https://goo.gl/maps/hxd1BKxgpchStzQC6","flag":{"uri":"https://flagcdn.com/ie.svg","mediaType":"image/svg\u002Bxml"}},"isExcluded":false},{"cca2":"ML","translations":[{"language":"English","name":"Mali"},{"language":"French","name":"Mali"}],"capitals":[{"name":"Bamako","coordinate":{"latitude":12.65,"longitude":-8}}],"borders":["DZA","BFA","GIN","CIV","MRT","NER","SEN"],"continent":"Africa","coordinate":{"latitude":17,"longitude":-4},"area":1240192,"population":20250834,"resource":{"map":"https://goo.gl/maps/u9mYJkCB19wyuzh27","flag":{"uri":"https://flagcdn.com/ml.svg","mediaType":"image/svg\u002Bxml"}},"isExcluded":false},{"cca2":"CR","translations":[{"language":"English","name":"Costa Rica"},{"language":"French","name":"Costa Rica"}],"capitals":[{"name":"San Jos\u00E9","coordinate":{"latitude":9.93,"longitude":-84.09}}],"borders":["NIC","PAN"],"continent":"CentralAmerica","coordinate":{"latitude":10,"longitude":-84},"area":51100,"population":5094114,"resource":{"map":"https://goo.gl/maps/RFiwytjvNrpfKN7k6","flag":{"uri":"https://flagcdn.com/cr.svg","mediaType":"image/svg\u002Bxml"}},"isExcluded":false},{"cca2":"IO","translations":[{"language":"English","name":"British Indian Ocean Territory"},{"language":"French","name":"Territoire britannique de l\u0027oc\u00E9an Indien"}],"capitals":[{"name":"Diego Garcia","coordinate":{"latitude":-7.3,"longitude":72.4}}],"borders":[],"continent":"Africa","coordinate":{"latitude":-6,"longitude":71.5},"area":60,"population":3000,"resource":{"map":"https://goo.gl/maps/bheNucgekVEYozoi6","flag":{"uri":"https://flagcdn.com/io.svg","mediaType":"image/svg\u002Bxml"}},"isExcluded":false},{"cca2":"MN","translations":[{"language":"English","name":"Mongolia"},{"language":"French","name":"Mongolie"}],"capitals":[{"name":"Ulan Bator","coordinate":{"latitude":47.92,"longitude":106.91}}],"borders":["CHN","RUS"],"continent":"Asia","coordinate":{"latitude":46,"longitude":105},"area":1564110,"population":3278292,"resource":{"map":"https://goo.gl/maps/A1X7bMCKThBDNjzH6","flag":{"uri":"https://flagcdn.com/mn.svg","mediaType":"image/svg\u002Bxml"}},"isExcluded":false},{"cca2":"GF","translations":[{"language":"English","name":"French Guiana"},{"language":"French","name":"Guyane"}],"capitals":[{"name":"Cayenne","coordinate":{"latitude":4.94,"longitude":-52.33}}],"borders":["BRA","SUR"],"continent":"SouthAmerica","coordinate":{"latitude":4,"longitude":-53},"area":83534,"population":254541,"resource":{"map":"https://goo.gl/maps/NJawFwMzG7YtCrVP7","flag":{"uri":"https://flagcdn.com/gf.svg","mediaType":"image/svg\u002Bxml"}},"isExcluded":false},{"cca2":"CA","translations":[{"language":"English","name":"Canada"},{"language":"French","name":"Canada"}],"capitals":[{"name":"Ottawa","coordinate":{"latitude":45.42,"longitude":-75.7}}],"borders":["USA"],"continent":"NorthAmerica","coordinate":{"latitude":60,"longitude":-95},"area":9984670,"population":38005238,"resource":{"map":"https://goo.gl/maps/jmEVLugreeqiZXxbA","flag":{"uri":"https://flagcdn.com/ca.svg","mediaType":"image/svg\u002Bxml"}},"isExcluded":false},{"cca2":"CK","translations":[{"language":"English","name":"Cook Islands"},{"language":"French","name":"\u00CEles Cook"}],"capitals":[{"name":"Avarua","coordinate":{"latitude":-21.2,"longitude":-159.77}}],"borders":[],"continent":"Oceania","coordinate":{"latitude":-21.23333333,"longitude":-159.76666666},"area":236,"population":18100,"resource":{"map":"https://goo.gl/maps/nrGZrvWRGB4WHgDC9","flag":{"uri":"https://flagcdn.com/ck.svg","mediaType":"image/svg\u002Bxml"}},"isExcluded":false},{"cca2":"EE","translations":[{"language":"English","name":"Estonia"},{"language":"French","name":"Estonie"}],"capitals":[{"name":"Tallinn","coordinate":{"latitude":59.43,"longitude":24.72}}],"borders":["LVA","RUS"],"continent":"Europe","coordinate":{"latitude":59,"longitude":26},"area":45227,"population":1331057,"resource":{"map":"https://goo.gl/maps/6SsynwGUodL1sDvq8","flag":{"uri":"https://flagcdn.com/ee.svg","mediaType":"image/svg\u002Bxml"}},"isExcluded":false},{"cca2":"TT","translations":[{"language":"English","name":"Trinidad and Tobago"},{"language":"French","name":"Trinit\u00E9-et-Tobago"}],"capitals":[{"name":"Port of Spain","coordinate":{"latitude":10.65,"longitude":-61.52}}],"borders":[],"continent":"CentralAmerica","coordinate":{"latitude":10.6918,"longitude":-61.2225},"area":5130,"population":1399491,"resource":{"map":"https://goo.gl/maps/NrRfDEWoG8FGZqWY7","flag":{"uri":"https://flagcdn.com/tt.svg","mediaType":"image/svg\u002Bxml"}},"isExcluded":false},{"cca2":"CC","translations":[{"language":"English","name":"Cocos (Keeling) Islands"},{"language":"French","name":"\u00CEles Cocos"}],"capitals":[{"name":"West Island","coordinate":{"latitude":-12.17,"longitude":96.83}}],"borders":[],"continent":"Oceania","coordinate":{"latitude":-12.1642,"longitude":96.871},"area":14,"population":544,"resource":{"map":"https://goo.gl/maps/3eCdKVpVfMcZyKcK6","flag":{"uri":"https://flagcdn.com/cc.svg","mediaType":"image/svg\u002Bxml"}},"isExcluded":false},{"cca2":"KM","translations":[{"language":"English","name":"Comoros"},{"language":"French","name":"Comores"}],"capitals":[{"name":"Moroni","coordinate":{"latitude":-11.7,"longitude":43.23}}],"borders":[],"continent":"Africa","coordinate":{"latitude":-12.16666666,"longitude":44.25},"area":1862,"population":869595,"resource":{"map":"https://goo.gl/maps/eas4GP28C1GyStnu6","flag":{"uri":"https://flagcdn.com/km.svg","mediaType":"image/svg\u002Bxml"}},"isExcluded":false},{"cca2":"CX","translations":[{"language":"English","name":"Christmas Island"},{"language":"French","name":"\u00CEle Christmas"}],"capitals":[{"name":"Flying Fish Cove","coordinate":{"latitude":-10.42,"longitude":105.68}}],"borders":[],"continent":"Oceania","coordinate":{"latitude":-10.5,"longitude":105.66666666},"area":135,"population":2072,"resource":{"map":"https://goo.gl/maps/ZC17hHsQZpShN5wk9","flag":{"uri":"https://flagcdn.com/cx.svg","mediaType":"image/svg\u002Bxml"}},"isExcluded":false},{"cca2":"TL","translations":[{"language":"English","name":"Timor-Leste"},{"language":"French","name":"Timor oriental"}],"capitals":[{"name":"Dili","coordinate":{"latitude":-8.58,"longitude":125.6}}],"borders":["IDN"],"continent":"Asia","coordinate":{"latitude":-8.83333333,"longitude":125.91666666},"area":14874,"population":1318442,"resource":{"map":"https://goo.gl/maps/sFqBC9zjgUXPR1iTA","flag":{"uri":"https://flagcdn.com/tl.svg","mediaType":"image/svg\u002Bxml"}},"isExcluded":false},{"cca2":"DK","translations":[{"language":"English","name":"Denmark"},{"language":"French","name":"Danemark"}],"capitals":[{"name":"Copenhagen","coordinate":{"latitude":55.67,"longitude":12.58}}],"borders":["DEU"],"continent":"Europe","coordinate":{"latitude":56,"longitude":10},"area":43094,"population":5831404,"resource":{"map":"https://goo.gl/maps/UddGPN7hAyrtpFiT6","flag":{"uri":"https://flagcdn.com/dk.svg","mediaType":"image/svg\u002Bxml"}},"isExcluded":false},{"cca2":"MK","translations":[{"language":"English","name":"North Macedonia"},{"language":"French","name":"Mac\u00E9doine du Nord"}],"capitals":[{"name":"Skopje","coordinate":{"latitude":42,"longitude":21.43}}],"borders":["ALB","BGR","GRC","UNK","SRB"],"continent":"Europe","coordinate":{"latitude":41.83333333,"longitude":22},"area":25713,"population":2077132,"resource":{"map":"https://goo.gl/maps/55Q8MEnF6ACdu3q79","flag":{"uri":"https://flagcdn.com/mk.svg","mediaType":"image/svg\u002Bxml"}},"isExcluded":false},{"cca2":"BD","translations":[{"language":"English","name":"Bangladesh"},{"language":"French","name":"Bangladesh"}],"capitals":[{"name":"Dhaka","coordinate":{"latitude":23.72,"longitude":90.4}}],"borders":["MMR","IND"],"continent":"Asia","coordinate":{"latitude":24,"longitude":90},"area":147570,"population":164689383,"resource":{"map":"https://goo.gl/maps/op6gmLbHcvv6rLhH6","flag":{"uri":"https://flagcdn.com/bd.svg","mediaType":"image/svg\u002Bxml"}},"isExcluded":false},{"cca2":"MU","translations":[{"language":"English","name":"Mauritius"},{"language":"French","name":"\u00CEle Maurice"}],"capitals":[{"name":"Port Louis","coordinate":{"latitude":-20.15,"longitude":57.48}}],"borders":[],"continent":"Africa","coordinate":{"latitude":-20.28333333,"longitude":57.55},"area":2040,"population":1265740,"resource":{"map":"https://goo.gl/maps/PpKtZ4W3tir5iGrz7","flag":{"uri":"https://flagcdn.com/mu.svg","mediaType":"image/svg\u002Bxml"}},"isExcluded":false},{"cca2":"CY","translations":[{"language":"English","name":"Cyprus"},{"language":"French","name":"Chypre"}],"capitals":[{"name":"Nicosia","coordinate":{"latitude":35.17,"longitude":33.37}}],"borders":[],"continent":"Europe","coordinate":{"latitude":35,"longitude":33},"area":9251,"population":1207361,"resource":{"map":"https://goo.gl/maps/77hPBRdLid8yD5Bm7","flag":{"uri":"https://flagcdn.com/cy.svg","mediaType":"image/svg\u002Bxml"}},"isExcluded":false},{"cca2":"GG","translations":[{"language":"English","name":"Guernsey"},{"language":"French","name":"Guernesey"}],"capitals":[{"name":"St. Peter Port","coordinate":{"latitude":49.45,"longitude":-2.54}}],"borders":[],"continent":"Europe","coordinate":{"latitude":49.46666666,"longitude":-2.58333333},"area":78,"population":62999,"resource":{"map":"https://goo.gl/maps/6kXnQU5QvEZMD9VB7","flag":{"uri":"https://flagcdn.com/gg.svg","mediaType":"image/svg\u002Bxml"}},"isExcluded":false},{"cca2":"BN","translations":[{"language":"English","name":"Brunei"},{"language":"French","name":"Brunei"}],"capitals":[{"name":"Bandar Seri Begawan","coordinate":{"latitude":4.88,"longitude":114.93}}],"borders":["MYS"],"continent":"Asia","coordinate":{"latitude":4.5,"longitude":114.66666666},"area":5765,"population":437483,"resource":{"map":"https://goo.gl/maps/4jb4CqBXhr8vNh579","flag":{"uri":"https://flagcdn.com/bn.svg","mediaType":"image/svg\u002Bxml"}},"isExcluded":false},{"cca2":"JP","translations":[{"language":"English","name":"Japan"},{"language":"French","name":"Japon"}],"capitals":[{"name":"Tokyo","coordinate":{"latitude":35.68,"longitude":139.75}}],"borders":[],"continent":"Asia","coordinate":{"latitude":36,"longitude":138},"area":377930,"population":125836021,"resource":{"map":"https://goo.gl/maps/NGTLSCSrA8bMrvnX9","flag":{"uri":"https://flagcdn.com/jp.svg","mediaType":"image/svg\u002Bxml"}},"isExcluded":false},{"cca2":"AZ","translations":[{"language":"English","name":"Azerbaijan"},{"language":"French","name":"Azerba\u00EFdjan"}],"capitals":[{"name":"Baku","coordinate":{"latitude":40.38,"longitude":49.87}}],"borders":["ARM","GEO","IRN","RUS","TUR"],"continent":"Asia","coordinate":{"latitude":40.5,"longitude":47.5},"area":86600,"population":10110116,"resource":{"map":"https://goo.gl/maps/az3Zz7ar2aoB9AUc6","flag":{"uri":"https://flagcdn.com/az.svg","mediaType":"image/svg\u002Bxml"}},"isExcluded":false},{"cca2":"BS","translations":[{"language":"English","name":"Bahamas"},{"language":"French","name":"Bahamas"}],"capitals":[{"name":"Nassau","coordinate":{"latitude":25.08,"longitude":-77.35}}],"borders":[],"continent":"CentralAmerica","coordinate":{"latitude":25.0343,"longitude":-77.3963},"area":13943,"population":393248,"resource":{"map":"https://goo.gl/maps/1YzRs1BZrG8p8pmVA","flag":{"uri":"https://flagcdn.com/bs.svg","mediaType":"image/svg\u002Bxml"}},"isExcluded":false},{"cca2":"LV","translations":[{"language":"English","name":"Latvia"},{"language":"French","name":"Lettonie"}],"capitals":[{"name":"Riga","coordinate":{"latitude":56.95,"longitude":24.1}}],"borders":["BLR","EST","LTU","RUS"],"continent":"Europe","coordinate":{"latitude":57,"longitude":25},"area":64559,"population":1901548,"resource":{"map":"https://goo.gl/maps/iQpUkH7ghq31ZtXe9","flag":{"uri":"https://flagcdn.com/lv.svg","mediaType":"image/svg\u002Bxml"}},"isExcluded":false},{"cca2":"YT","translations":[{"language":"English","name":"Mayotte"},{"language":"French","name":"Mayotte"}],"capitals":[{"name":"Mamoudzou","coordinate":{"latitude":-12.78,"longitude":45.22}}],"borders":[],"continent":"Africa","coordinate":{"latitude":-12.83333333,"longitude":45.16666666},"area":374,"population":226915,"resource":{"map":"https://goo.gl/maps/1e7MXmfBwQv3TQGF7","flag":{"uri":"https://flagcdn.com/yt.svg","mediaType":"image/svg\u002Bxml"}},"isExcluded":false},{"cca2":"AF","translations":[{"language":"English","name":"Afghanistan"},{"language":"French","name":"Afghanistan"}],"capitals":[{"name":"Kabul","coordinate":{"latitude":34.52,"longitude":69.18}}],"borders":["IRN","PAK","TKM","UZB","TJK","CHN"],"continent":"Asia","coordinate":{"latitude":33,"longitude":65},"area":652230,"population":40218234,"resource":{"map":"https://goo.gl/maps/BXBGw7yUUFknCfva9","flag":{"uri":"https://upload.wikimedia.org/wikipedia/commons/5/5c/Flag_of_the_Taliban.svg","mediaType":"image/svg\u002Bxml"}},"isExcluded":false},{"cca2":"KG","translations":[{"language":"English","name":"Kyrgyzstan"},{"language":"French","name":"Kirghizistan"}],"capitals":[{"name":"Bishkek","coordinate":{"latitude":42.87,"longitude":74.6}}],"borders":["CHN","KAZ","TJK","UZB"],"continent":"Asia","coordinate":{"latitude":41,"longitude":75},"area":199951,"population":6591600,"resource":{"map":"https://goo.gl/maps/SKG8BSMMQVvxkRkB7","flag":{"uri":"https://flagcdn.com/kg.svg","mediaType":"image/svg\u002Bxml"}},"isExcluded":false},{"cca2":"NF","translations":[{"language":"English","name":"Norfolk Island"},{"language":"French","name":"\u00CEle Norfolk"}],"capitals":[{"name":"Kingston","coordinate":{"latitude":-29.05,"longitude":167.97}}],"borders":[],"continent":"Oceania","coordinate":{"latitude":-29.03333333,"longitude":167.95},"area":36,"population":2302,"resource":{"map":"https://goo.gl/maps/pbvtm6XYd1iZbjky5","flag":{"uri":"https://flagcdn.com/nf.svg","mediaType":"image/svg\u002Bxml"}},"isExcluded":false},{"cca2":"VU","translations":[{"language":"English","name":"Vanuatu"},{"language":"French","name":"Vanuatu"}],"capitals":[{"name":"Port Vila","coordinate":{"latitude":-17.73,"longitude":168.32}}],"borders":[],"continent":"Oceania","coordinate":{"latitude":-16,"longitude":167},"area":12189,"population":307150,"resource":{"map":"https://goo.gl/maps/hwAjehcT7VfvP5zJ8","flag":{"uri":"https://flagcdn.com/vu.svg","mediaType":"image/svg\u002Bxml"}},"isExcluded":false},{"cca2":"AE","translations":[{"language":"English","name":"United Arab Emirates"},{"language":"French","name":"\u00C9mirats arabes unis"}],"capitals":[{"name":"Abu Dhabi","coordinate":{"latitude":24.47,"longitude":54.37}}],"borders":["OMN","SAU"],"continent":"Asia","coordinate":{"latitude":24,"longitude":54},"area":83600,"population":9890400,"resource":{"map":"https://goo.gl/maps/AZZTDA6GzVAnKMVd8","flag":{"uri":"https://flagcdn.com/ae.svg","mediaType":"image/svg\u002Bxml"}},"isExcluded":false},{"cca2":"LS","translations":[{"language":"English","name":"Lesotho"},{"language":"French","name":"Lesotho"}],"capitals":[{"name":"Maseru","coordinate":{"latitude":-29.32,"longitude":27.48}}],"borders":["ZAF"],"continent":"Africa","coordinate":{"latitude":-29.5,"longitude":28.5},"area":30355,"population":2142252,"resource":{"map":"https://goo.gl/maps/H8gJi5mL4Cmd1SF28","flag":{"uri":"https://flagcdn.com/ls.svg","mediaType":"image/svg\u002Bxml"}},"isExcluded":false},{"cca2":"MM","translations":[{"language":"English","name":"Myanmar"},{"language":"French","name":"Birmanie"}],"capitals":[{"name":"Naypyidaw","coordinate":{"latitude":19.76,"longitude":96.07}}],"borders":["BGD","CHN","IND","LAO","THA"],"continent":"Asia","coordinate":{"latitude":22,"longitude":98},"area":676578,"population":54409794,"resource":{"map":"https://goo.gl/maps/4jrZyJkDERUfHyp26","flag":{"uri":"https://flagcdn.com/mm.svg","mediaType":"image/svg\u002Bxml"}},"isExcluded":false},{"cca2":"GB","translations":[{"language":"English","name":"United Kingdom"},{"language":"French","name":"Royaume-Uni"}],"capitals":[{"name":"London","coordinate":{"latitude":51.5,"longitude":-0.08}}],"borders":["IRL"],"continent":"Europe","coordinate":{"latitude":54,"longitude":-2},"area":242900,"population":67215293,"resource":{"map":"https://goo.gl/maps/FoDtc3UKMkFsXAjHA","flag":{"uri":"https://flagcdn.com/gb.svg","mediaType":"image/svg\u002Bxml"}},"isExcluded":false},{"cca2":"NO","translations":[{"language":"English","name":"Norway"},{"language":"French","name":"Norv\u00E8ge"}],"capitals":[{"name":"Oslo","coordinate":{"latitude":59.92,"longitude":10.75}}],"borders":["FIN","SWE","RUS"],"continent":"Europe","coordinate":{"latitude":62,"longitude":10},"area":323802,"population":5379475,"resource":{"map":"https://goo.gl/maps/htWRrphA7vNgQNdSA","flag":{"uri":"https://flagcdn.com/no.svg","mediaType":"image/svg\u002Bxml"}},"isExcluded":false},{"cca2":"RE","translations":[{"language":"English","name":"R\u00E9union"},{"language":"French","name":"R\u00E9union"}],"capitals":[{"name":"Saint-Denis","coordinate":{"latitude":-20.88,"longitude":55.45}}],"borders":[],"continent":"Africa","coordinate":{"latitude":-21.15,"longitude":55.5},"area":2511,"population":840974,"resource":{"map":"https://goo.gl/maps/wWpBrXsp8UHVbah29","flag":{"uri":"https://flagcdn.com/re.svg","mediaType":"image/svg\u002Bxml"}},"isExcluded":false},{"cca2":"KR","translations":[{"language":"English","name":"South Korea"},{"language":"French","name":"Cor\u00E9e du Sud"}],"capitals":[{"name":"Seoul","coordinate":{"latitude":37.55,"longitude":126.98}}],"borders":["PRK"],"continent":"Asia","coordinate":{"latitude":37,"longitude":127.5},"area":100210,"population":51780579,"resource":{"map":"https://goo.gl/maps/7ecjaJXefjAQhxjGA","flag":{"uri":"https://flagcdn.com/kr.svg","mediaType":"image/svg\u002Bxml"}},"isExcluded":false},{"cca2":"TC","translations":[{"language":"English","name":"Turks and Caicos Islands"},{"language":"French","name":"\u00CEles Turques-et-Ca\u00EFques"}],"capitals":[{"name":"Cockburn Town","coordinate":{"latitude":21.46,"longitude":-71.14}}],"borders":[],"continent":"CentralAmerica","coordinate":{"latitude":21.75,"longitude":-71.58333333},"area":948,"population":38718,"resource":{"map":"https://goo.gl/maps/R8VUDQfwZiFtvmyn8","flag":{"uri":"https://flagcdn.com/tc.svg","mediaType":"image/svg\u002Bxml"}},"isExcluded":false},{"cca2":"DJ","translations":[{"language":"English","name":"Djibouti"},{"language":"French","name":"Djibouti"}],"capitals":[{"name":"Djibouti","coordinate":{"latitude":11.58,"longitude":43.15}}],"borders":["ERI","ETH","SOM"],"continent":"Africa","coordinate":{"latitude":11.5,"longitude":43},"area":23200,"population":988002,"resource":{"map":"https://goo.gl/maps/V1HWfzN3bS1kwf4C6","flag":{"uri":"https://flagcdn.com/dj.svg","mediaType":"image/svg\u002Bxml"}},"isExcluded":false},{"cca2":"AU","translations":[{"language":"English","name":"Australia"},{"language":"French","name":"Australie"}],"capitals":[{"name":"Canberra","coordinate":{"latitude":-35.27,"longitude":149.13}}],"borders":[],"continent":"Oceania","coordinate":{"latitude":-27,"longitude":133},"area":7692024,"population":25687041,"resource":{"map":"https://goo.gl/maps/DcjaDa7UbhnZTndH6","flag":{"uri":"https://flagcdn.com/au.svg","mediaType":"image/svg\u002Bxml"}},"isExcluded":false},{"cca2":"MH","translations":[{"language":"English","name":"Marshall Islands"},{"language":"French","name":"\u00CEles Marshall"}],"capitals":[{"name":"Majuro","coordinate":{"latitude":7.1,"longitude":171.38}}],"borders":[],"continent":"Oceania","coordinate":{"latitude":9,"longitude":168},"area":181,"population":59194,"resource":{"map":"https://goo.gl/maps/A4xLi1XvcX88gi3W8","flag":{"uri":"https://flagcdn.com/mh.svg","mediaType":"image/svg\u002Bxml"}},"isExcluded":false},{"cca2":"OM","translations":[{"language":"English","name":"Oman"},{"language":"French","name":"Oman"}],"capitals":[{"name":"Muscat","coordinate":{"latitude":23.62,"longitude":58.58}}],"borders":["SAU","ARE","YEM"],"continent":"Asia","coordinate":{"latitude":21,"longitude":57},"area":309500,"population":5106622,"resource":{"map":"https://goo.gl/maps/L2BoXoAwDDwWecnw5","flag":{"uri":"https://flagcdn.com/om.svg","mediaType":"image/svg\u002Bxml"}},"isExcluded":false},{"cca2":"NP","translations":[{"language":"English","name":"Nepal"},{"language":"French","name":"N\u00E9pal"}],"capitals":[{"name":"Kathmandu","coordinate":{"latitude":27.72,"longitude":85.32}}],"borders":["CHN","IND"],"continent":"Asia","coordinate":{"latitude":28,"longitude":84},"area":147181,"population":29136808,"resource":{"map":"https://goo.gl/maps/UMj2zpbQp7B5c3yT7","flag":{"uri":"https://flagcdn.com/np.svg","mediaType":"image/svg\u002Bxml"}},"isExcluded":false},{"cca2":"NU","translations":[{"language":"English","name":"Niue"},{"language":"French","name":"Niue"}],"capitals":[{"name":"Alofi","coordinate":{"latitude":-19.02,"longitude":-169.92}}],"borders":[],"continent":"Oceania","coordinate":{"latitude":-19.03333333,"longitude":-169.86666666},"area":260,"population":1470,"resource":{"map":"https://goo.gl/maps/xFgdzs3E55Rk1y8P9","flag":{"uri":"https://flagcdn.com/nu.svg","mediaType":"image/svg\u002Bxml"}},"isExcluded":false},{"cca2":"TG","translations":[{"language":"English","name":"Togo"},{"language":"French","name":"Togo"}],"capitals":[{"name":"Lom\u00E9","coordinate":{"latitude":6.14,"longitude":1.21}}],"borders":["BEN","BFA","GHA"],"continent":"Africa","coordinate":{"latitude":8,"longitude":1.16666666},"area":56785,"population":8278737,"resource":{"map":"https://goo.gl/maps/jzAa9feXuXPrKVb89","flag":{"uri":"https://flagcdn.com/tg.svg","mediaType":"image/svg\u002Bxml"}},"isExcluded":false},{"cca2":"CG","translations":[{"language":"English","name":"Republic of the Congo"},{"language":"French","name":"Congo"}],"capitals":[{"name":"Brazzaville","coordinate":{"latitude":-4.25,"longitude":15.28}}],"borders":["AGO","CMR","CAF","COD","GAB"],"continent":"Africa","coordinate":{"latitude":-1,"longitude":15},"area":342000,"population":5657000,"resource":{"map":"https://goo.gl/maps/Phf5dDDKdfCtuBTb6","flag":{"uri":"https://flagcdn.com/cg.svg","mediaType":"image/svg\u002Bxml"}},"isExcluded":false},{"cca2":"MG","translations":[{"language":"English","name":"Madagascar"},{"language":"French","name":"Madagascar"}],"capitals":[{"name":"Antananarivo","coordinate":{"latitude":-18.92,"longitude":47.52}}],"borders":[],"continent":"Africa","coordinate":{"latitude":-20,"longitude":47},"area":587041,"population":27691019,"resource":{"map":"https://goo.gl/maps/AHQh2ABBaFW6Ngj26","flag":{"uri":"https://flagcdn.com/mg.svg","mediaType":"image/svg\u002Bxml"}},"isExcluded":false},{"cca2":"SM","translations":[{"language":"English","name":"San Marino"},{"language":"French","name":"Saint-Marin"}],"capitals":[{"name":"City of San Marino","coordinate":{"latitude":43.94,"longitude":12.45}}],"borders":["ITA"],"continent":"Europe","coordinate":{"latitude":43.76666666,"longitude":12.41666666},"area":61,"population":33938,"resource":{"map":"https://goo.gl/maps/rxCVJjm8dVY93RPY8","flag":{"uri":"https://flagcdn.com/sm.svg","mediaType":"image/svg\u002Bxml"}},"isExcluded":false},{"cca2":"LT","translations":[{"language":"English","name":"Lithuania"},{"language":"French","name":"Lituanie"}],"capitals":[{"name":"Vilnius","coordinate":{"latitude":54.68,"longitude":25.32}}],"borders":["BLR","LVA","POL","RUS"],"continent":"Europe","coordinate":{"latitude":56,"longitude":24},"area":65300,"population":2794700,"resource":{"map":"https://goo.gl/maps/dd1s9rrLjrK2G8yY6","flag":{"uri":"https://flagcdn.com/lt.svg","mediaType":"image/svg\u002Bxml"}},"isExcluded":false},{"cca2":"BT","translations":[{"language":"English","name":"Bhutan"},